$IIBWC,082058,,,,,,T,,M,,N,*06
$IIDBT,12.9,f,3.93,M,2.15,F*24
$IIGGA,082058,4000.742,N,01529.413,E,1,08,1,1,M,45,M,,*49
$IIGLL,4000.742,N,01529.413,E,082058,A*36
$IIHDM,240.0,M*24
$IIHDT,241.0,T*25
$IIRSA,-10,A,,V*7B
$IIMWV,347.5,R,4.2,N,A*3E
$IIMWV,211.5,T,1.7,N,A*3A
$IIVHW,240.5,T,239.5,M,5.58,N,10.33,K*62
$IIMWD,092.5,T,091.5,M,1.7,N,0.9,M*48
$IIVLW,43891.6,N,6.41,N*7F
$IIVTG,238.5,T,237.5,M,6.4,N,11.9,K*6D
$IIBWC,082100,,,,,,T,,M,,N,*0A
$IIDBT,13.8,f,4.21,M,2.30,F*2D
$IIGGA,082100,4000.740,N,01529.409,E,1,07,1,1,M,45,M,,*43
$IIGLL,4000.740,N,01529.409,E,082100,A*33
$IIHDM,240.0,M*24
$IIHDT,241.0,T*25
$IIRSA,-10,A,,V*7B
$IIMWV,347.5,R,4.3,N,A*3F
$IIMWV,209.5,T,1.8,N,A*3C
$IIVHW,241.5,T,240.5,M,5.58,N,10.33,K*6D
$IIBWC,082102,,,,,,T,,M,,N,*08
$IIDBT,13.4,f,4.09,M,2.23,F*29
$IIGGA,082102,4000.738,N,01529.405,E,1,07,1,1,M,45,M,,*42
$IIGLL,4000.738,N,01529.405,E,082102,A*32
$IIHDM,239.0,M*2A
$IIHDT,240.0,T*24
$IIRSA,-10,A,,V*7B
$IIMWV,344.5,R,4.9,N,A*36
$IIMWV,236.5,T,1.5,N,A*3D
$IIVHW,241.0,T,240.0,M,5.59,N,10.35,K*6A
$IIGSA,,3,25,29,12,02,24,14,31,06,,,,,,1,*71
$IIMTW,31.1,C*10
$IIZDA,082104,23,08,2015,,*5F
$IIMWD,093.0,T,092.0,M,1.8,N,0.9,M*45
$IIVLW,43891.6,N,6.41,N*7F
$IIVTG,238.0,T,237.0,M,6.4,N,11.9,K*6D
$IIBWC,082105,,,,,,T,,M,,N,*0F
$IIDBT,13.0,f,3.96,M,2.16,F*2A
$IIGGA,082105,4000.736,N,01529.401,E,1,08,1,1,M,45,M,,*40
$IIGLL,4000.736,N,01529.401,E,082105,A*3F
$IIHDM,240.5,M*21
$IIHDT,241.5,T*20
$IIRSA,-10,A,,V*7B
$IIMWV,310.0,R,4.7,N,A*3C
$IIMWV,234.5,T,4.4,N,A*3B
$IIVHW,241.5,T,240.5,M,5.59,N,10.35,K*6A
$IIBWC,082106,,,,,,T,,M,,N,*0C
$IIDBT,12.3,f,3.75,M,2.05,F*27
$IIGGA,082106,4000.734,N,01529.397,E,1,08,1,1,M,45,M,,*49
$IIGLL,4000.734,N,01529.397,E,082106,A*36
$IIHDM,241.5,M*20
$IIHDT,242.5,T*23
$IIRSA,-11,A,,V*7A
$IIMWV,344.0,R,4.5,N,A*3F
$IIMWV,224.5,T,1.7,N,A*3C
$IIVHW,243.0,T,242.0,M,5.59,N,10.35,K*6A
$IIBWC,082108,,,,,,T,,M,,N,*02
$IIDBT,12.3,f,3.75,M,2.05,F*27
$IIGGA,082108,4000.733,N,01529.393,E,1,07,1,1,M,45,M,,*4B
$IIGLL,4000.733,N,01529.393,E,082107,A*34
$IIHDM,239.0,M*2A
$IIHDT,240.0,T*24
$IIRSA,-11,A,,V*7A
$IIMWV,298.0,R,4.4,N,A*3E
$IIMWV,225.5,T,5.4,N,A*3A
$IIVHW,239.5,T,238.5,M,5.84,N,10.81,K*65
$IIMWD,130.0,T,129.0,M,4.9,N,2.5,M*46
$IIVLW,43891.6,N,6.41,N*7F
$IIVTG,238.5,T,237.5,M,6.4,N,11.9,K*6D
$IIBWC,082109,,,,,,T,,M,,N,*03
$IIDBT,12.3,f,3.75,M,2.05,F*27
$IIGGA,082109,4000.731,N,01529.389,E,1,07,1,1,M,45,M,,*43
$IIGLL,4000.731,N,01529.389,E,082109,A*33
$IIHDM,238.5,M*2E
$IIHDT,239.5,T*2F
$IIRSA,-10,A,,V*7B
$IIMWV,324.5,R,5.1,N,A*39
$IIMWV,237.0,T,3.5,N,A*3B
$IIVHW,240.0,T,239.0,M,6.08,N,11.26,K*61
$IIBWC,082111,,,,,,T,,M,,N,*0A
$IIDBT,12.3,f,3.75,M,2.05,F*27
$IIGGA,082111,4000.729,N,01529.385,E,1,07,1,1,M,45,M,,*4F
$IIGLL,4000.729,N,01529.385,E,082111,A*3F
$IIHDM,239.5,M*2F
$IIHDT,240.5,T*21
$IIRSA,-10,A,,V*7B
$IIMWV,315.0,R,4.9,N,A*37
$IIMWV,238.5,T,4.0,N,A*33
$IIVHW,240.5,T,239.5,M,5.59,N,10.35,K*65
$IIGSA,,3,25,29,12,02,24,14,31,,,,,,,1,*77
$IIMTW,31.1,C*10
$IIZDA,082113,23,08,2015,,*59
$IIMWD,112.5,T,111.5,M,6.2,N,3.2,M*42
$IIVTG,238.0,T,237.0,M,6.4,N,11.9,K*6D
$IIBWC,082114,,,,,,T,,M,,N,*0F
$IIDBT,12.3,f,3.75,M,2.05,F*27
$IIGGA,082114,4000.727,N,01529.381,E,1,07,1,1,M,45,M,,*40
$IIGLL,4000.727,N,01529.381,E,082114,A*30
$IIHDM,241.5,M*20
$IIHDT,242.5,T*23
$IIRSA,-10,A,,V*7B
$IIMWV,355.5,R,4.8,N,A*37
$IIMWV,199.5,T,1.1,N,A*3F
$IIVHW,241.0,T,240.0,M,5.84,N,10.81,K*65
$IIBWC,082115,,,,,,T,,M,,N,*0E
$IIDBT,12.3,f,3.75,M,2.05,F*27
$IIGGA,082115,4000.725,N,01529.377,E,1,07,1,1,M,45,M,,*4A
$IIGLL,4000.725,N,01529.377,E,082115,A*3A
$IIHDM,238.5,M*2E
$IIHDT,239.5,T*2F
$IIRSA,-10,A,,V*7B
$IIMWV,315.0,R,4.6,N,A*38
$IIMWV,231.5,T,4.1,N,A*3B
$IIVHW,239.5,T,238.5,M,5.84,N,10.81,K*65
$IIBWC,082118,,,,,,T,,M,,N,*03
$IIDBT,12.3,f,3.75,M,2.05,F*27
$IIGGA,082118,4000.723,N,01529.373,E,1,08,1,2,M,45,M,,*49
$IIGLL,4000.723,N,01529.373,E,082118,A*35
$IIHDM,241.0,M*25
$IIHDT,242.0,T*26
$IIRSA,-10,A,,V*7B
$IIMWV,318.5,R,5.9,N,A*3E
$IIMWV,256.5,T,4.0,N,A*3B
$IIVHW,241.5,T,240.5,M,5.35,N,9.91,K*56
$IIMWD,111.5,T,110.5,M,5.6,N,2.9,M*4D
$IIVTG,238.0,T,237.0,M,6.4,N,11.9,K*6D
$IIBWC,082120,,,,,,T,,M,,N,*08
$IIDBT,12.3,f,3.75,M,2.05,F*27
$IIGGA,082120,4000.723,N,01529.373,E,1,08,1,2,M,45,M,,*42
$IIGLL,4000.721,N,01529.369,E,082120,A*37
$IIHDM,241.0,M*25
$IIHDT,242.0,T*26
$IIRSA,-10,A,,V*7B
$IIMWV,347.5,R,4.9,N,A*35
$IIMWV,218.0,T,1.7,N,A*36
$IIVHW,240.5,T,239.5,M,6.13,N,11.35,K*69
$IIBWC,082122,,,,,,T,,M,,N,*0A
$IIDBT,12.3,f,3.75,M,2.05,F*27
$IIGGA,082122,4000.719,N,01529.365,E,1,07,1,2,M,45,M,,*41
$IIGLL,4000.719,N,01529.365,E,082122,A*32
$IIHDM,239.5,M*2F
$IIHDT,240.5,T*21
$IIRSA,-10,A,,V*7B
$IIMWV,299.5,R,5.4,N,A*3B
$IIMWV,238.0,T,5.5,N,A*32
$IIVHW,240.0,T,239.0,M,5.59,N,10.35,K*65
$IIGSA,,3,25,29,12,02,24,14,31,06,,,,,,1,*71
$IIMTW,30.7,C*17
$IIZDA,082124,23,08,2015,,*5D
$IIMWD,118.0,T,117.0,M,4.3,N,2.2,M*4C
$IIVTG,238.0,T,237.0,M,6.4,N,11.9,K*6D
$IIBWC,082125,,,,,,T,,M,,N,*0D
$IIDBT,12.3,f,3.75,M,2.05,F*27
$IIGGA,082125,4000.717,N,01529.361,E,1,07,1,2,M,45,M,,*4C
$IIGLL,4000.717,N,01529.361,E,082125,A*3F
$IIHDM,240.5,M*21
$IIHDT,241.5,T*20
$IIRSA,-10,A,,V*7B
$IIMWV,325.0,R,4.4,N,A*39
$IIMWV,229.5,T,4.7,N,A*34
$IIVHW,241.5,T,240.5,M,5.59,N,10.35,K*6A
$IIBWC,082126,,,,,,T,,M,,N,*0E
$IIDBT,12.3,f,3.75,M,2.05,F*27
$IIGGA,082126,4000.715,N,01529.357,E,1,07,1,2,M,45,M,,*48
$IIGLL,4000.715,N,01529.357,E,082126,A*3B
$IIHDM,238.5,M*2E
$IIHDT,239.5,T*2F
$IIRSA,-10,A,,V*7B
$IIMWV,335.0,R,4.6,N,A*3A
$IIMWV,229.0,T,2.5,N,A*35
$IIVHW,239.5,T,238.5,M,5.84,N,10.81,K*65
$IIBWC,082128,,,,,,T,,M,,N,*00
$IIDBT,12.3,f,3.75,M,2.05,F*27
$IIGGA,082128,4000.714,N,01529.353,E,1,07,1,1,M,45,M,,*40
$IIGLL,4000.714,N,01529.353,E,082128,A*30
$IIHDM,240.0,M*24
$IIHDT,241.0,T*25
$IIRSA,-10,A,,V*7B
$IIMWV,277.5,R,4.4,N,A*3A
$IIMWV,225.0,T,4.5,N,A*3F
$IIVHW,241.5,T,240.5,M,5.59,N,10.35,K*6A
$IIMWD,106.5,T,105.5,M,4.5,N,2.3,M*47
$IIVLW,43891.7,N,6.51,N*7F
$IIVTG,237.5,T,236.5,M,6.4,N,11.9,K*63
$IIBWC,082130,,,,,,T,,M,,N,*09
$IIDBT,12.3,f,3.75,M,2.05,F*27
$IIGGA,082130,4000.712,N,01529.349,E,1,07,1,1,M,45,M,,*44
$IIGLL,4000.712,N,01529.349,E,082130,A*34
$IIHDM,240.0,M*24
$IIHDT,241.0,T*25
$IIRSA,-10,A,,V*7B
$IIMWV,349.0,R,3.7,N,A*37
$IIMWV,221.5,T,4.4,N,A*3F
$IIVHW,241.5,T,240.5,M,5.59,N,10.35,K*6A
$IIBWC,082132,,,,,,T,,M,,N,*0B
$IIDBT,12.3,f,3.75,M,2.05,F*27
$IIGGA,082132,4000.712,N,01529.349,E,1,07,1,1,M,45,M,,*46
$IIGLL,4000.710,N,01529.345,E,082132,A*38
$IIHDM,240.5,M*21
$IIHDT,241.5,T*20
$IIRSA,-11,A,,V*7A
$IIMWV,290.0,R,3.8,N,A*3D
$IIMWV,220.0,T,5.6,N,A*38
$IIVHW,240.0,T,239.0,M,5.59,N,10.35,K*65
$IIGSA,,3,25,29,12,02,24,14,31,,,,,,,1,*77
$IIMTW,30.7,C*17
$IIZDA,082134,23,08,2015,,*5C
$IIMWD,108.0,T,107.0,M,3.8,N,2.0,M*42
$IIVLW,43891.7,N,6.51,N*7F
$IIVTG,238.5,T,237.5,M,6.4,N,11.9,K*6D
$IIBWC,082135,,,,,,T,,M,,N,*0C
$IIDBT,12.3,f,3.75,M,2.05,F*27
$IIGGA,082135,4000.708,N,01529.341,E,1,07,1,1,M,45,M,,*42
$IIGLL,4000.708,N,01529.341,E,082135,A*32
$IIHDM,239.5,M*2F
$IIHDT,240.5,T*21
$IIRSA,-10,A,,V*7B
$IIMWV,318.0,R,4.3,N,A*30
$IIMWV,227.5,T,3.9,N,A*33
$IIVHW,241.5,T,240.5,M,5.84,N,10.81,K*65
$IIBWC,082136,,,,,,T,,M,,N,*0F
$IIDBT,12.3,f,3.75,M,2.05,F*27
$IIGGA,082136,4000.706,N,01529.337,E,1,07,1,1,M,45,M,,*4E
$IIGLL,4000.706,N,01529.337,E,082136,A*3E
$IIHDM,241.0,M*25
$IIHDT,242.0,T*26
$IIRSA,-10,A,,V*7B
$IIMWV,310.5,R,4.5,N,A*3B
$IIMWV,234.5,T,4.2,N,A*3D
$IIVHW,242.0,T,241.0,M,5.35,N,9.91,K*54
$IIBWC,082138,,,,,,T,,M,,N,*01
$IIDBT,12.3,f,3.75,M,2.05,F*27
$IIGGA,082138,4000.706,N,01529.337,E,1,08,1,1,M,45,M,,*4F
$IIGLL,4000.706,N,01529.337,E,082138,A*30
$IIHDM,241.0,M*25
$IIHDT,240.0,T*24
$IIRSA,-11,A,,V*7A
$IIMWV,318.0,R,3.9,N,A*3D
$IIMWV,224.0,T,3.7,N,A*3B
$IIVHW,240.0,T,239.0,M,5.59,N,10.35,K*65
$IIMWD,103.5,T,102.5,M,3.7,N,1.9,M*49
$IIVLW,43891.7,N,6.51,N*7F
$IIVTG,238.5,T,237.5,M,6.5,N,12.0,K*66
$IIBWC,082139,,,,,,T,,M,,N,*00
$IIDBT,12.3,f,3.75,M,2.05,F*27
$IIGGA,082139,4000.702,N,01529.329,E,1,08,1,0,M,45,M,,*44
$IIGLL,4000.702,N,01529.329,E,082139,A*3A
$IIHDM,239.0,M*2A
$IIHDT,240.0,T*24
$IIRSA,-10,A,,V*7B
$IIMWV,285.5,R,4.3,N,A*30
$IIMWV,221.5,T,6.2,N,A*3B
$IIVHW,240.0,T,239.0,M,5.84,N,10.81,K*6A
$IIBWC,082141,,,,,,T,,M,,N,*0F
$IIDBT,12.3,f,3.75,M,2.05,F*27
$IIGGA,082141,4000.700,N,01529.325,E,1,07,1,0,M,45,M,,*4A
$IIGLL,4000.700,N,01529.325,E,082141,A*3B
$IIHDM,241.5,M*20
$IIHDT,242.5,T*23
$IIRSA,-10,A,,V*7B
$IIMWV,355.0,R,4.2,N,A*38
$IIMWV,194.5,T,1.4,N,A*37
$IIVHW,242.5,T,241.5,M,5.59,N,10.35,K*68
$IIGSA,,3,25,29,12,02,24,14,31,,,,,,,1,*77
$IIMTW,30.7,C*17
$IIZDA,082143,23,08,2015,,*5C
$IIMWD,093.0,T,092.0,M,2.0,N,1.0,M*46
$IIVLW,43891.7,N,6.51,N*7F
$IIVTG,238.0,T,237.0,M,6.4,N,11.9,K*6D
$IIBWC,082144,,,,,,T,,M,,N,*0A
$IIDBT,12.3,f,3.75,M,2.05,F*27
$IIGGA,082144,4000.698,N,01529.321,E,1,07,1,0,M,45,M,,*4B
$IIGLL,4000.698,N,01529.321,E,082144,A*3A
$IIHDM,239.0,M*2A
$IIHDT,240.0,T*24
$IIRSA,-10,A,,V*7B
$IIMWV,297.5,R,4.1,N,A*31
$IIMWV,222.5,T,5.3,N,A*3A
$IIVHW,240.0,T,239.0,M,5.84,N,10.81,K*6A
$IIBWC,082145,,,,,,T,,M,,N,*0B
$IIDBT,12.3,f,3.75,M,2.05,F*27
$IIGGA,082145,4000.697,N,01529.317,E,1,07,1,0,M,45,M,,*40
$IIGLL,4000.697,N,01529.317,E,082145,A*31
$IIHDM,239.0,M*2A
$IIHDT,241.5,T*20
$IIRSA,-10,A,,V*7B
$IIMWV,328.0,R,3.8,N,A*3F
$IIMWV,220.5,T,3.1,N,A*3C
$IIVHW,241.5,T,240.5,M,5.59,N,10.35,K*6A
$IIBWC,082147,,,,,,T,,M,,N,*09
$IIDBT,12.3,f,3.75,M,2.05,F*27
$IIGGA,082147,4000.695,N,01529.313,E,1,07,1,0,M,45,M,,*44
$IIGLL,4000.695,N,01529.313,E,082147,A*35
$IIHDM,240.5,M*21
$IIHDT,241.5,T*20
$IIRSA,-10,A,,V*7B
$IIMWV,015.5,R,3.5,N,A*3A
$IIMWV,154.5,T,2.1,N,A*3D
$IIVHW,241.5,T,240.5,M,5.35,N,9.91,K*56
$IIMWD,100.0,T,099.0,M,5.5,N,2.8,M*4F
$IIVLW,43891.7,N,6.51,N*7F
$IIVTG,238.0,T,237.0,M,6.5,N,12.0,K*66
$IIBWC,082149,,,,,,T,,M,,N,*07
$IIDBT,12.3,f,3.75,M,2.05,F*27
$IIGGA,082149,4000.695,N,01529.313,E,1,08,1,0,M,45,M,,*45
$IIGLL,4000.695,N,01529.313,E,082149,A*3B
$IIHDM,240.5,M*21
$IIHDT,241.5,T*20
$IIRSA,-10,A,,V*7B
$IIMWV,343.5,R,4.1,N,A*39
$IIMWV,208.5,T,2.4,N,A*32
$IIVHW,241.5,T,240.5,M,6.08,N,11.26,K*6E
$IIBWC,082151,,,,,,T,,M,,N,*0E
$IIDBT,12.3,f,3.75,M,2.05,F*27
$IIGGA,082151,4000.691,N,01529.305,E,1,08,1,0,M,45,M,,*4F
$IIGLL,4000.691,N,01529.305,E,082151,A*31
$IIHDM,240.0,M*24
$IIHDT,240.5,T*21
$IIRSA,-10,A,,V*7B
$IIMWV,337.5,R,4.1,N,A*3A
$IIMWV,225.0,T,2.2,N,A*3E
$IIVHW,240.5,T,239.5,M,5.35,N,9.91,K*59
$IIGSA,,3,25,29,12,02,24,14,31,,,,,,,1,*77
$IIMTW,31.1,C*10
$IIZDA,082153,23,08,2015,,*5D
$IIMWD,101.0,T,100.0,M,5.1,N,2.6,M*45
$IIVLW,43891.7,N,6.51,N*7F
$IIVTG,238.0,T,237.0,M,6.5,N,12.0,K*66
$IIBWC,082154,,,,,,T,,M,,N,*0B
$IIDBT,12.3,f,3.75,M,2.05,F*27
$IIGGA,082154,4000.689,N,01529.301,E,1,07,1,0,M,45,M,,*48
$IIGLL,4000.689,N,01529.301,E,082154,A*39
$IIHDM,240.5,M*21
$IIHDT,241.5,T*20
$IIRSA,-10,A,,V*7B
$IIMWV,338.5,R,3.7,N,A*34
$IIMWV,212.5,T,2.5,N,A*38
$IIVHW,241.5,T,240.5,M,5.59,N,10.35,K*6A
$IIBWC,082155,,,,,,T,,M,,N,*0A
$IIDBT,12.3,f,3.75,M,2.05,F*27
$IIGGA,082155,4000.687,N,01529.297,E,1,07,1,0,M,45,M,,*49
$IIGLL,4000.687,N,01529.297,E,082155,A*38
$IIHDM,238.5,M*2E
$IIHDT,239.5,T*2F
$IIRSA,-10,A,,V*7B
$IIMWV,357.5,R,3.7,N,A*3D
$IIMWV,184.5,T,1.8,N,A*3A
$IIVHW,240.0,T,239.0,M,6.08,N,11.26,K*61
$IIBWC,082157,,,,,,T,,M,,N,*08
$IIDBT,12.3,f,3.75,M,2.05,F*27
$IIGGA,082157,4000.685,N,01529.293,E,1,07,1,0,M,45,M,,*4D
$IIGLL,4000.685,N,01529.293,E,082157,A*3C
$IIHDM,239.5,M*2F
$IIHDT,240.5,T*21
$IIRSA,-10,A,,V*7B
$IIMWV,286.5,R,3.9,N,A*3E
$IIMWV,218.5,T,6.0,N,A*33
$IIVHW,240.0,T,239.0,M,5.84,N,10.81,K*6A
$IIMWD,088.0,T,087.0,M,2.0,N,1.0,M*48
$IIVLW,43891.7,N,6.51,N*7F
$IIVTG,238.0,T,237.0,M,6.5,N,12.0,K*66
$IIBWC,082159,,,,,,T,,M,,N,*06
$IIDBT,12.3,f,3.75,M,2.05,F*27
$IIGGA,082159,4000.685,N,01529.293,E,1,07,1,1,M,45,M,,*42
$IIGLL,4000.683,N,01529.289,E,082159,A*3F
$IIHDM,239.0,M*2A
$IIHDT,240.0,T*24
$IIRSA,-10,A,,V*7B
$IIMWV,307.0,R,3.9,N,A*33
$IIMWV,224.0,T,4.5,N,A*3E
$IIVHW,240.0,T,239.0,M,5.59,N,10.35,K*65
$IIBWC,082201,,,,,,T,,M,,N,*08
$IIDBT,12.3,f,3.75,M,2.05,F*27
$IIGGA,082201,4000.683,N,01529.289,E,1,07,1,1,M,45,M,,*41
$IIGLL,4000.683,N,01529.289,E,082201,A*31
$IIHDM,241.0,M*25
$IIHDT,242.0,T*26
$IIRSA,-10,A,,V*7B
$IIMWV,006.5,R,4.0,N,A*3A
$IIMWV,164.5,T,1.6,N,A*3A
$IIVHW,241.5,T,240.5,M,5.59,N,10.35,K*6A
$IIGSA,,3,25,29,12,02,24,14,31,,,,,,,1,*77
$IIMTW,30.7,C*17
$IIZDA,082203,23,08,2015,,*5B
$IIMWD,091.0,T,090.0,M,6.4,N,3.3,M*47
$IIVLW,43891.7,N,6.51,N*7F
$IIVTG,238.0,T,237.0,M,6.5,N,12.0,K*66
$IIBWC,082204,,,,,,T,,M,,N,*0D
$IIDBT,12.3,f,3.75,M,2.05,F*27
$IIGGA,082204,4000.679,N,01529.281,E,1,07,1,1,M,45,M,,*49
$IIGLL,4000.679,N,01529.281,E,082204,A*39
$IIHDM,241.0,M*25
$IIHDT,242.0,T*26
$IIRSA,-9,A,,V*43
$IIMWV,293.5,R,4.6,N,A*32
$IIMWV,230.0,T,5.5,N,A*3A
$IIVHW,242.0,T,241.0,M,5.35,N,9.91,K*54
$IIBWC,082205,,,,,,T,,M,,N,*0C
$IIDBT,12.3,f,3.75,M,2.05,F*27
$IIGGA,082205,4000.677,N,01529.277,E,1,08,1,1,M,45,M,,*40
$IIGLL,4000.677,N,01529.277,E,082205,A*3F
$IIHDM,240.5,M*21
$IIHDT,241.5,T*20
$IIRSA,-10,A,,V*7B
$IIMWV,275.5,R,3.9,N,A*32
$IIMWV,215.5,T,6.7,N,A*39
$IIVHW,242.5,T,241.5,M,5.84,N,10.81,K*67
$IIBWC,082207,,,,,,T,,M,,N,*0E
$IIDBT,12.3,f,3.75,M,2.05,F*27
$IIGGA,082207,4000.677,N,01529.277,E,1,08,1,1,M,45,M,,*42
$IIGLL,4000.677,N,01529.277,E,082207,A*3D
$IIHDM,242.5,M*23
$IIHDT,243.5,T*22
$IIRSA,-11,A,,V*7A
$IIMWV,096.0,R,4.2,N,A*34
$IIMWV,146.5,T,7.5,N,A*3F
$IIVHW,242.0,T,241.0,M,5.84,N,10.81,K*67
$IIMWD,082.5,T,081.5,M,2.4,N,1.2,M*42
$IIVLW,43891.7,N,6.51,N*7F
$IIVTG,238.0,T,237.0,M,6.5,N,12.0,K*66
$IIBWC,082209,,,,,,T,,M,,N,*00
$IIDBT,12.3,f,3.75,M,2.05,F*27
$IIGGA,082209,4000.676,N,01529.273,E,1,07,1,1,M,45,M,,*46
$IIGLL,4000.674,N,01529.269,E,082209,A*3F
$IIHDM,238.5,M*2E
$IIHDT,239.5,T*2F
$IIRSA,-10,A,,V*7B
$IIMWV,005.5,R,3.7,N,A*39
$IIMWV,169.5,T,1.9,N,A*38
$IIVHW,240.0,T,239.0,M,5.59,N,10.35,K*65
$IIBWC,082211,,,,,,T,,M,,N,*09
$IIDBT,12.3,f,3.75,M,2.05,F*27
$IIGGA,082211,4000.672,N,01529.265,E,1,07,1,1,M,45,M,,*4C
$IIGLL,4000.672,N,01529.265,E,082211,A*3C
$IIHDM,239.5,M*2F
$IIHDT,240.5,T*21
$IIRSA,-10,A,,V*7B
$IIMWV,025.0,R,3.7,N,A*3E
$IIMWV,145.0,T,2.7,N,A*3E
$IIVHW,241.5,T,240.5,M,5.59,N,10.35,K*6A
$IIGSA,,3,25,29,12,02,24,14,31,,,,,,,1,*77
$IIMTW,30.7,C*17
$IIZDA,082213,23,08,2015,,*5A
$IIMWD,071.0,T,070.0,M,1.6,N,0.8,M*4A
$IIVTG,238.0,T,237.0,M,6.5,N,12.0,K*66
$IIBWC,082214,,,,,,T,,M,,N,*0C
$IIDBT,12.3,f,3.75,M,2.05,F*27
$IIGGA,082214,4000.670,N,01529.261,E,1,07,1,1,M,45,M,,*4F
$IIGLL,4000.670,N,01529.261,E,082214,A*3F
$IIHDM,241.0,M*25
$IIHDT,242.0,T*26
$IIRSA,-10,A,,V*7B
$IIMWV,307.0,R,4.7,N,A*3A
$IIMWV,231.0,T,4.8,N,A*37
$IIVHW,241.5,T,240.5,M,5.84,N,10.81,K*65
$IIBWC,082215,,,,,,T,,M,,N,*0D
$IIDBT,12.3,f,3.75,M,2.05,F*27
$IIGGA,082215,4000.668,N,01529.257,E,1,07,1,1,M,45,M,,*42
$IIGLL,4000.668,N,01529.257,E,082215,A*32
$IIHDM,239.5,M*2F
$IIHDT,240.5,T*21
$IIRSA,-10,A,,V*7B
$IIMWV,352.5,R,4.1,N,A*39
$IIMWV,199.0,T,1.6,N,A*3D
$IIVHW,240.5,T,239.5,M,5.59,N,10.35,K*65
$IIBWC,082217,,,,,,T,,M,,N,*0F
$IIDBT,12.3,f,3.75,M,2.05,F*27
$IIGGA,082217,4000.666,N,01529.253,E,1,07,1,1,M,45,M,,*4A
$IIGLL,4000.666,N,01529.253,E,082217,A*3A
$IIHDT,241.0,T*25
$IIHDT,241.0,T*25
$IIMWV,327.5,R,4.0,N,A*3A
$IIMWV,218.5,T,3.4,N,A*32
$IIVHW,242.0,T,241.0,M,5.59,N,10.35,K*68
$IIMWD,111.0,T,110.0,M,3.0,N,1.5,M*42
$IIVTG,238.0,T,237.0,M,6.5,N,12.0,K*66
$IIBWC,082219,,,,,,T,,M,,N,*01
$IIDBT,12.3,f,3.75,M,2.05,F*27
$IIGGA,082219,4000.666,N,01529.253,E,1,07,1,1,M,45,M,,*44
$IIGLL,4000.666,N,01529.253,E,082219,A*34
$IIHDM,241.5,M*20
$IIHDT,242.5,T*23
$IIRSA,-10,A,,V*7B
$IIMWV,341.0,R,4.4,N,A*3B
$IIMWV,220.5,T,2.2,N,A*3E
$IIVHW,242.5,T,241.5,M,5.84,N,10.81,K*67
$IIBWC,082221,,,,,,T,,M,,N,*0A
$IIDBT,12.3,f,3.75,M,2.05,F*27
$IIGGA,082221,4000.664,N,01529.249,E,1,07,1,1,M,45,M,,*46
$IIGLL,4000.663,N,01529.245,E,082221,A*3D
$IIHDM,240.0,M*24
$IIHDT,241.0,T*25
$IIRSA,-10,A,,V*7B
$IIMWV,011.0,R,3.9,N,A*37
$IIMWV,162.0,T,2.4,N,A*38
$IIVHW,241.0,T,240.0,M,6.12,N,11.33,K*61
$IIGSA,,3,25,29,12,02,24,14,31,,,,,,,1,*77
$IIMTW,30.7,C*17
$IIZDA,082223,23,08,2015,,*59
$IIMWD,106.0,T,105.0,M,2.8,N,1.4,M*48
$IIVTG,238.5,T,237.5,M,6.5,N,12.0,K*66
$IIBWC,082224,,,,,,T,,M,,N,*0F
$IIDBT,12.3,f,3.75,M,2.05,F*27
$IIGGA,082224,4000.661,N,01529.241,E,1,07,1,1,M,45,M,,*4E
$IIGLL,4000.661,N,01529.241,E,082224,A*3E
$IIHDM,240.5,M*21
$IIHDT,241.5,T*20
$IIRSA,-10,A,,V*7B
$IIMWV,357.5,R,4.2,N,A*3F
$IIMWV,189.0,T,1.1,N,A*3B
$IIVHW,242.0,T,241.0,M,5.35,N,9.91,K*54
$IIBWC,082225,,,,,,T,,M,,N,*0E
$IIDBT,12.3,f,3.75,M,2.05,F*27
$IIGGA,082225,4000.661,N,01529.241,E,1,07,1,1,M,45,M,,*4F
$IIGLL,4000.661,N,01529.241,E,082225,A*3F
$IIHDM,240.5,M*21
$IIHDT,241.5,T*20
$IIRSA,-10,A,,V*7B
$IIMWV,330.0,R,3.9,N,A*37
$IIMWV,221.5,T,2.9,N,A*34
$IIVHW,241.5,T,240.5,M,5.59,N,10.35,K*6A
$IIBWC,082227,,,,,,T,,M,,N,*0C
$IIDBT,12.3,f,3.75,M,2.05,F*27
$IIGGA,082227,4000.659,N,01529.237,E,1,07,1,1,M,45,M,,*47
$IIGLL,4000.659,N,01529.237,E,082227,A*37
$IIHDM,241.5,M*20
$IIHDT,242.5,T*23
$IIRSA,-10,A,,V*7B
$IIMWV,322.5,R,3.7,N,A*3F
$IIMWV,215.5,T,3.8,N,A*33
$IIVHW,243.0,T,242.0,M,6.08,N,11.26,K*6E
$IIMWD,103.0,T,102.0,M,3.0,N,1.5,M*42
$IIVLW,43891.8,N,6.61,N*73
$IIVTG,238.5,T,237.5,M,6.5,N,12.0,K*66
$IIBWC,082229,,,,,,T,,M,,N,*02
$IIDBT,12.3,f,3.75,M,2.05,F*27
$IIGGA,082229,4000.657,N,01529.233,E,1,07,1,1,M,45,M,,*43
$IIGLL,4000.657,N,01529.233,E,082229,A*33
$IIHDM,239.5,M*2F
$IIHDT,240.5,T*21
$IIRSA,-10,A,,V*7B
$IIMWV,338.5,R,3.7,N,A*34
$IIMWV,215.5,T,2.3,N,A*39
$IIVHW,241.5,T,240.5,M,5.35,N,9.91,K*56
$IIBWC,082231,,,,,,T,,M,,N,*0B
$IIDBT,12.3,f,3.75,M,2.05,F*27
$IIGGA,082231,4000.655,N,01529.229,E,1,07,1,1,M,45,M,,*43
$IIGLL,4000.655,N,01529.229,E,082231,A*33
$IIHDM,240.0,M*24
$IIHDT,241.0,T*25
$IIRSA,-10,A,,V*7B
$IIMWV,002.5,R,3.6,N,A*3F
$IIMWV,175.5,T,1.9,N,A*35
$IIVHW,242.0,T,241.0,M,5.59,N,10.35,K*68
$IIGSA,,3,25,29,12,02,24,14,31,06,,,,,,1,*71
$IIMTW,30.7,C*17
$IIZDA,082233,23,08,2015,,*58
$IIMWD,100.5,T,099.5,M,3.2,N,1.6,M*43
$IIVLW,43891.8,N,6.61,N*73
$IIVTG,238.5,T,237.5,M,6.5,N,12.0,K*66
$IIBWC,082234,,,,,,T,,M,,N,*0E
$IIDBT,12.3,f,3.75,M,2.05,F*27
$IIGGA,082234,4000.651,N,01529.220,E,1,07,1,1,M,45,M,,*4B
$IIGLL,4000.651,N,01529.220,E,082234,A*3B
$IIHDM,240.5,M*21
$IIHDT,241.5,T*20
$IIRSA,-10,A,,V*7B
$IIMWV,011.5,R,3.7,N,A*3C
$IIMWV,161.5,T,2.3,N,A*39
$IIVHW,241.0,T,240.0,M,5.83,N,10.80,K*63
$IIBWC,082235,,,,,,T,,M,,N,*0F
$IIDBT,12.3,f,3.75,M,2.05,F*27
$IIGGA,082235,4000.649,N,01529.216,E,1,07,1,1,M,45,M,,*46
$IIGLL,4000.649,N,01529.216,E,082235,A*36
$IIHDM,239.5,M*2F
$IIHDT,240.5,T*21
$IIRSA,-10,A,,V*7B
$IIMWV,001.5,R,4.6,N,A*3B
$IIMWV,171.0,T,0.7,N,A*3B
$IIVHW,240.5,T,239.5,M,5.34,N,9.89,K*51
$IIBWC,082237,,,,,,T,,M,,N,*0D
$IIDBT,12.3,f,3.75,M,2.05,F*27
$IIGGA,082237,4000.649,N,01529.216,E,1,07,1,1,M,45,M,,*44
$IIGLL,4000.649,N,01529.216,E,082237,A*34
$IIHDM,241.0,M*25
$IIHDT,242.0,T*26
$IIRSA,-10,A,,V*7B
$IIMWV,014.0,R,4.2,N,A*3E
$IIMWV,146.0,T,1.8,N,A*31
$IIVHW,242.0,T,241.0,M,5.58,N,10.33,K*6F
$IIMWD,114.0,T,113.0,M,3.2,N,1.6,M*45
$IIVLW,43891.8,N,6.61,N*73
$IIVTG,238.5,T,237.5,M,6.5,N,12.0,K*66
$IIBWC,082239,,,,,,T,,M,,N,*03
$IIDBT,12.3,f,3.75,M,2.05,F*27
$IIGGA,082239,4000.648,N,01529.212,E,1,07,1,1,M,45,M,,*4F
$IIGLL,4000.648,N,01529.212,E,082239,A*3F
$IIHDM,240.0,M*24
$IIHDT,241.0,T*25
$IIRSA,-10,A,,V*7B
$IIMWV,351.5,R,4.3,N,A*38
$IIMWV,202.0,T,1.7,N,A*3D
$IIVHW,241.0,T,240.0,M,5.83,N,10.80,K*63
$IIBWC,082241,,,,,,T,,M,,N,*0C
$IIDBT,12.3,f,3.75,M,2.05,F*27
$IIGGA,082241,4000.646,N,01529.208,E,1,07,1,1,M,45,M,,*45
$IIGLL,4000.646,N,01529.208,E,082241,A*35
$IIHDM,239.0,M*2A
$IIHDT,240.0,T*24
$IIRSA,-10,A,,V*7B
$IIMWV,334.0,R,4.4,N,A*39
$IIMWV,229.5,T,2.5,N,A*30
$IIVHW,240.0,T,239.0,M,5.58,N,10.33,K*62
$IIGSA,,3,25,29,12,02,24,14,31,,,,,,,1,*77
$IIMTW,30.7,C*17
$IIZDA,082243,23,08,2015,,*5F
$IIMWD,118.0,T,117.0,M,3.6,N,1.9,M*46
$IIVLW,43891.8,N,6.61,N*73
$IIVTG,238.5,T,237.5,M,6.5,N,12.0,K*66
$IIBWC,082244,,,,,,T,,M,,N,*09
$IIDBT,12.3,f,3.75,M,2.05,F*27
$IIGGA,082244,4000.642,N,01529.200,E,1,07,1,1,M,45,M,,*4C
$IIGLL,4000.642,N,01529.200,E,082244,A*3C
$IIHDM,241.0,M*25
$IIHDT,242.0,T*26
$IIRSA,-10,A,,V*7B
$IIMWV,345.5,R,4.9,N,A*37
$IIMWV,223.0,T,1.8,N,A*31
$IIVHW,242.0,T,241.0,M,6.07,N,11.24,K*61
$IIBWC,082245,,,,,,T,,M,,N,*08
$IIDBT,12.3,f,3.75,M,2.05,F*27
$IIGGA,082245,4000.640,N,01529.196,E,1,07,1,1,M,45,M,,*43
$IIGLL,4000.640,N,01529.196,E,082245,A*33
$IIHDM,240.0,M*24
$IIHDT,241.0,T*25
$IIRSA,-10,A,,V*7B
$IIMWV,346.5,R,4.3,N,A*3E
$IIMWV,215.5,T,1.7,N,A*3E
$IIVHW,241.0,T,240.0,M,5.58,N,10.33,K*6D
$IIBWC,082247,,,,,,T,,M,,N,*0A
$IIDBT,12.3,f,3.75,M,2.05,F*27
$IIGGA,082247,4000.640,N,01529.196,E,1,07,1,1,M,45,M,,*41
$IIGLL,4000.640,N,01529.196,E,082247,A*31
$IIHDM,241.0,M*25
$IIHDT,242.0,T*26
$IIMWV,203.5,T,1.9,N,A*37
$IIMWV,203.5,T,1.9,N,A*37
$IIVHW,242.0,T,241.0,M,5.83,N,10.80,K*61
$IIMWD,109.0,T,108.0,M,1.6,N,0.8,M*4A
$IIVLW,43891.8,N,6.61,N*73
$IIVTG,238.5,T,237.5,M,6.5,N,12.0,K*66
$IIBWC,082249,,,,,,T,,M,,N,*04
$IIDBT,12.3,f,3.75,M,2.05,F*27
$IIGGA,082249,4000.638,N,01529.192,E,1,07,1,0,M,45,M,,*45
$IIGLL,4000.638,N,01529.192,E,082249,A*34
$IIHDM,240.5,M*21
$IIHDT,241.5,T*20
$IIRSA,-10,A,,V*7B
$IIMWV,324.5,R,4.5,N,A*3C
$IIMWV,156.5,T,1.8,N,A*35
$IIVHW,241.5,T,240.5,M,5.58,N,10.33,K*6D
$IIBWC,082251,,,,,,T,,M,,N,*0D
$IIDBT,12.3,f,3.75,M,2.05,F*27
$IIGGA,082251,4000.636,N,01529.188,E,1,07,1,0,M,45,M,,*49
$IIGLL,4000.636,N,01529.188,E,082251,A*38
$IIHDM,241.5,M*20
$IIHDT,240.0,T*24
$IIRSA,-11,A,,V*7A
$IIMWV,333.0,R,4.5,N,A*3F
$IIMWV,220.0,T,2.7,N,A*3E
$IIVHW,240.0,T,239.0,M,5.83,N,10.80,K*6C
$IIGSA,,3,25,29,12,02,24,14,31,,,,,,,1,*77
$IIZDA,082253,23,08,2015,,*5E
$IIMWD,098.5,T,097.5,M,3.5,N,1.8,M*44
$IIVLW,43891.8,N,6.61,N*73
$IIVTG,239.0,T,238.0,M,6.5,N,12.0,K*68
$IIBWC,082254,,,,,,T,,M,,N,*08
$IIDBT,12.3,f,3.75,M,2.05,F*27
$IIGGA,082254,4000.633,N,01529.180,E,1,07,1,0,M,45,M,,*41
$IIGLL,4000.633,N,01529.180,E,082254,A*30
$IIHDM,238.5,M*2E
$IIHDT,239.5,T*2F
$IIRSA,-10,A,,V*7B
$IIMWV,354.5,R,3.8,N,A*31
$IIMWV,190.0,T,2.0,N,A*31
$IIVHW,239.5,T,238.5,M,5.83,N,10.80,K*63
$IIBWC,082255,,,,,,T,,M,,N,*09
$IIDBT,12.3,f,3.75,M,2.05,F*27
$IIGGA,082255,4000.633,N,01529.180,E,1,07,1,0,M,45,M,,*40
$IIGLL,4000.633,N,01529.180,E,082255,A*31
$IIHDM,241.0,M*25
$IIHDT,242.0,T*26
$IIRSA,-10,A,,V*7B
$IIMWV,357.0,R,4.1,N,A*39
$IIMWV,188.0,T,1.5,N,A*3E
$IIVHW,242.0,T,241.0,M,5.58,N,10.33,K*6F
$IIBWC,082257,,,,,,T,,M,,N,*0B
$IIDBT,12.3,f,3.75,M,2.05,F*27
$IIGGA,082257,4000.631,N,01529.176,E,1,07,1,0,M,45,M,,*49
$IIGLL,4000.631,N,01529.176,E,082257,A*38
$IIHDM,239.0,M*2A
$IIHDT,241.5,T*20
$IIRSA,-10,A,,V*7B
$IIMWV,346.5,R,4.4,N,A*39
$IIMWV,218.5,T,1.6,N,A*32
$IIVHW,241.5,T,240.5,M,5.58,N,10.33,K*6D
$IIMWD,088.0,T,087.0,M,2.2,N,1.1,M*4B
$IIVLW,43891.8,N,6.61,N*73
$IIVTG,238.5,T,237.5,M,6.5,N,12.0,K*66
$IIBWC,082259,,,,,,T,,M,,N,*05
$IIDBT,12.3,f,3.75,M,2.05,F*27
$IIGGA,082259,4000.629,N,01529.172,E,1,07,1,0,M,45,M,,*4A
$IIGLL,4000.629,N,01529.172,E,082259,A*3B
$IIHDM,239.5,M*2F
$IIHDT,240.5,T*21
$IIRSA,-10,A,,V*7B
$IIMWV,357.5,R,4.1,N,A*3C
$IIMWV,186.5,T,1.4,N,A*34
$IIVHW,241.5,T,240.5,M,5.58,N,10.33,K*6D
$IIBWC,082301,,,,,,T,,M,,N,*09
$IIDBT,12.3,f,3.75,M,2.05,F*27
$IIGGA,082301,4000.627,N,01529.168,E,1,07,1,0,M,45,M,,*43
$IIGLL,4000.627,N,01529.168,E,082301,A*32
$IIHDM,238.5,M*2E
$IIHDT,239.5,T*2F
$IIRSA,-10,A,,V*7B
$IIMWV,340.0,R,4.0,N,A*3E
$IIMWV,217.0,T,2.2,N,A*3F
$IIVHW,241.0,T,240.0,M,5.58,N,10.33,K*6D
$IIGSA,,3,25,29,12,02,24,14,31,,,,,,,1,*77
$IIMTW,30.7,C*17
$IIZDA,082303,23,08,2015,,*5A
$IIMWD,100.5,T,099.5,M,2.4,N,1.2,M*40
$IIVLW,43891.8,N,6.61,N*73
$IIVTG,238.0,T,237.0,M,6.5,N,12.0,K*66
$IIBWC,082304,,,,,,T,,M,,N,*0C
$IIDBT,12.3,f,3.75,M,2.05,F*27
$IIGGA,082304,4000.623,N,01529.160,E,1,07,1,0,M,45,M,,*4A
$IIGLL,4000.623,N,01529.160,E,082304,A*3B
$IIHDM,241.0,M*25
$IIHDT,242.0,T*26
$IIRSA,-11,A,,V*7A
$IIMWV,348.0,R,4.0,N,A*36
$IIMWV,206.5,T,1.8,N,A*33
$IIVHW,242.0,T,241.0,M,5.58,N,10.33,K*6F
$IIBWC,082305,,,,,,T,,M,,N,*0D
$IIDBT,12.3,f,3.75,M,2.05,F*27
$IIGGA,082305,4000.623,N,01529.160,E,1,07,1,0,M,45,M,,*4B
$IIGLL,4000.621,N,01529.156,E,082305,A*3D
$IIHDM,240.0,M*24
$IIHDT,241.0,T*25
$IIRSA,-11,A,,V*7A
$IIMWV,011.5,R,4.2,N,A*3E
$IIMWV,154.0,T,1.9,N,A*33
$IIVHW,240.0,T,239.0,M,5.83,N,10.80,K*6C
$IIBWC,082307,,,,,,T,,M,,N,*0F
$IIDBT,12.3,f,3.75,M,2.05,F*27
$IIGGA,082307,4000.621,N,01529.156,E,1,07,1,0,M,45,M,,*4E
$IIGLL,4000.621,N,01529.156,E,082307,A*3F
$IIHDM,240.0,M*24
$IIHDT,241.0,T*25
$IIRSA,-10,A,,V*7B
$IIMWV,345.0,R,4.1,N,A*3A
$IIMWV,213.0,T,1.9,N,A*33
$IIVHW,240.0,T,239.0,M,5.58,N,10.33,K*62
$IIMWD,093.5,T,092.5,M,1.9,N,1.0,M*4C
$IIVLW,43891.8,N,6.61,N*73
$IIVTG,238.5,T,237.5,M,6.5,N,12.0,K*66
$IIBWC,082308,,,,,,T,,M,,N,*00
$IIDBT,12.3,f,3.75,M,2.05,F*27
$IIGGA,082308,4000.619,N,01529.152,E,1,07,1,0,M,45,M,,*4E
$IIGLL,4000.619,N,01529.152,E,082308,A*3F
$IIHDT,241.5,T*20
$IIRSA,-10,A,,V*7B
$IIMWV,011.0,R,4.2,N,A*3B
$IIMWV,151.0,T,1.6,N,A*39
$IIVHW,242.5,T,241.5,M,5.58,N,10.33,K*6F
$IIBWC,082310,,,,,,T,,M,,N,*09
$IIDBT,11.3,f,3.45,M,1.88,F*21
$IIGGA,082310,4000.617,N,01529.148,E,1,07,1,0,M,45,M,,*42
$IIGLL,4000.617,N,01529.148,E,082310,A*33
$IIHDM,239.0,M*2A
$IIHDT,240.0,T*24
$IIRSA,-10,A,,V*7B
$IIMWV,318.0,R,4.1,N,A*32
$IIMWV,227.0,T,3.7,N,A*38
$IIVHW,240.5,T,239.5,M,5.59,N,10.35,K*65
$IIGSA,,3,25,29,12,02,24,14,31,,,,,,,1,*77
$IIMTW,31.1,C*10
$IIZDA,082312,23,08,2015,,*5A
$IIMWD,084.5,T,083.5,M,1.7,N,0.9,M*4C
$IIVTG,238.5,T,237.5,M,6.5,N,12.0,K*66
$IIBWC,082313,,,,,,T,,M,,N,*0A
$IIDBT,12.7,f,3.87,M,2.11,F*2B
$IIGGA,082313,4000.614,N,01529.140,E,1,08,1,0,M,45,M,,*45
$IIGLL,4000.614,N,01529.140,E,082313,A*3B
$IIHDM,241.0,M*25
$IIHDT,242.0,T*26
$IIRSA,-10,A,,V*7B
$IIMWV,320.5,R,4.4,N,A*39
$IIMWV,235.0,T,3.4,N,A*38
$IIVHW,241.0,T,240.0,M,5.35,N,9.91,K*56
$IIBWC,082314,,,,,,T,,M,,N,*0D
$IIDBT,12.7,f,3.87,M,2.11,F*2B
$IIGGA,082314,4000.614,N,01529.140,E,1,07,1,0,M,45,M,,*4D
$IIGLL,4000.614,N,01529.140,E,082314,A*3C
$IIHDM,240.5,M*21
$IIHDT,241.5,T*20
$IIRSA,-10,A,,V*7B
$IIMWV,326.0,R,4.6,N,A*38
$IIMWV,235.0,T,3.1,N,A*3D
$IIVHW,241.5,T,240.5,M,5.59,N,10.35,K*6A
$IIBWC,082316,,,,,,T,,M,,N,*0F
$IIDBT,12.7,f,3.87,M,2.11,F*2B
$IIGGA,082316,4000.612,N,01529.136,E,1,07,1,0,M,45,M,,*48
$IIGLL,4000.612,N,01529.136,E,082316,A*39
$IIHDM,238.5,M*2E
$IIHDT,239.5,T*2F
$IIRSA,-10,A,,V*7B
$IIMWV,334.0,R,4.6,N,A*3B
$IIMWV,229.5,T,2.6,N,A*33
$IIVHW,240.5,T,239.5,M,5.84,N,10.81,K*6A
$IIMWD,113.0,T,112.0,M,3.5,N,1.8,M*4A
$IIVTG,238.5,T,237.5,M,6.5,N,12.0,K*66
$IIBWC,082319,,,,,,T,,M,,N,*00
$IIDBT,12.7,f,3.87,M,2.11,F*2B
$IIGGA,082319,4000.610,N,01529.132,E,1,07,1,0,M,45,M,,*41
$IIGLL,4000.610,N,01529.132,E,082319,A*30
$IIHDM,240.0,M*24
$IIHDT,241.0,T*25
$IIRSA,-10,A,,V*7B
$IIMWV,324.0,R,4.9,N,A*35
$IIMWV,240.5,T,3.3,N,A*38
$IIVHW,241.5,T,240.5,M,5.59,N,10.35,K*6A
$IIBWC,082321,,,,,,T,,M,,N,*0B
$IIDBT,12.7,f,3.87,M,2.11,F*2B
$IIGGA,082321,4000.608,N,01529.128,E,1,07,1,0,M,45,M,,*48
$IIGLL,4000.608,N,01529.128,E,082321,A*39
$IIHDM,242.5,M*23
$IIHDT,243.5,T*22
$IIRSA,-10,A,,V*7B
$IIMWV,333.5,R,4.5,N,A*3A
$IIMWV,232.0,T,2.5,N,A*3F
$IIVHW,242.5,T,241.5,M,5.59,N,10.35,K*68
$IIGSA,,3,25,29,12,02,24,14,31,,,,,,,1,*77
$IIMTW,30.7,C*17
$IIZDA,082323,23,08,2015,,*58
$IIMWD,113.5,T,112.5,M,3.7,N,1.9,M*49
$IIVTG,238.5,T,237.5,M,6.5,N,12.0,K*66
$IIBWC,082324,,,,,,T,,M,,N,*0E
$IIDBT,12.7,f,3.87,M,2.11,F*2B
$IIGGA,082324,4000.604,N,01529.120,E,1,08,1,0,M,45,M,,*46
$IIGLL,4000.604,N,01529.120,E,082324,A*38
$IIHDM,240.0,M*24
$IIHDT,241.0,T*25
$IIRSA,-10,A,,V*7B
$IIMWV,316.0,R,4.5,N,A*38
$IIMWV,230.0,T,4.0,N,A*3E
$IIVHW,241.0,T,240.0,M,5.84,N,10.81,K*65
$IIBWC,082325,,,,,,T,,M,,N,*0F
$IIDBT,12.7,f,3.87,M,2.11,F*2B
$IIGGA,082325,4000.604,N,01529.120,E,1,07,1,0,M,45,M,,*48
$IIGLL,4000.604,N,01529.120,E,082325,A*39
$IIHDM,238.5,M*2E
$IIHDT,239.5,T*2F
$IIRSA,-10,A,,V*7B
$IIMWV,334.0,R,4.3,N,A*3E
$IIMWV,223.5,T,2.7,N,A*38
$IIVHW,239.5,T,238.5,M,5.59,N,10.35,K*6A
$IIBWC,082327,,,,,,T,,M,,N,*0D
$IIDBT,12.7,f,3.87,M,2.11,F*2B
$IIGGA,082327,4000.602,N,01529.116,E,1,07,1,0,M,45,M,,*49
$IIGLL,4000.602,N,01529.116,E,082327,A*38
$IIHDM,240.0,M*24
$IIHDT,241.0,T*25
$IIRSA,-10,A,,V*7B
$IIMWV,310.5,R,4.8,N,A*36
$IIMWV,231.0,T,4.6,N,A*39
$IIVHW,241.0,T,240.0,M,6.08,N,11.26,K*6E
$IIMWD,109.5,T,108.5,M,2.7,N,1.4,M*45
$IIVTG,238.5,T,237.5,M,6.5,N,12.0,K*66
$IIBWC,082329,,,,,,T,,M,,N,*03
$IIDBT,12.7,f,3.87,M,2.11,F*2B
$IIGGA,082329,4000.600,N,01529.112,E,1,08,1,0,M,45,M,,*4E
$IIGLL,4000.600,N,01529.112,E,082329,A*30
$IIHDM,240.5,M*21
$IIHDT,241.5,T*20
$IIRSA,-10,A,,V*7B
$IIMWV,306.0,R,4.4,N,A*38
$IIMWV,232.0,T,3.5,N,A*3E
$IIVHW,241.5,T,240.5,M,5.84,N,10.81,K*65
$IIBWC,082331,,,,,,T,,M,,N,*0A
$IIDBT,12.7,f,3.87,M,2.11,F*2B
$IIGGA,082331,4000.599,N,01529.108,E,1,07,1,0,M,45,M,,*40
$IIGLL,4000.599,N,01529.108,E,082331,A*31
$IIHDM,241.0,M*25
$IIHDT,242.0,T*26
$IIRSA,-10,A,,V*7B
$IIMWV,298.5,R,4.2,N,A*3D
$IIMWV,226.5,T,5.2,N,A*3F
$IIVHW,241.5,T,240.5,M,5.59,N,10.35,K*6A
$IIGSA,,3,25,29,12,02,24,14,31,06,,,,,,1,*71
$IIMTW,30.7,C*17
$IIZDA,082333,23,08,2015,,*59
$IIMWD,061.5,T,060.5,M,2.0,N,1.0,M*46
$IIVLW,43891.9,N,6.71,N*73
$IIVTG,238.5,T,237.5,M,6.5,N,12.0,K*66
$IIBWC,082334,,,,,,T,,M,,N,*0F
$IIDBT,12.7,f,3.87,M,2.11,F*2B
$IIGGA,082334,4000.595,N,01529.100,E,1,07,1,0,M,45,M,,*41
$IIGLL,4000.595,N,01529.100,E,082334,A*30
$IIHDM,238.5,M*2E
$IIHDT,239.5,T*2F
$IIRSA,-9,A,,V*43
$IIMWV,287.5,R,3.6,N,A*30
$IIMWV,216.0,T,5.8,N,A*33
$IIVHW,239.5,T,238.5,M,5.84,N,10.81,K*65
$IIBWC,082335,,,,,,T,,M,,N,*0E
$IIDBT,12.7,f,3.87,M,2.11,F*2B
$IIGGA,082335,4000.595,N,01529.100,E,1,08,1,0,M,45,M,,*4F
$IIGLL,4000.595,N,01529.100,E,082335,A*31
$IIHDM,240.5,M*21
$IIHDT,241.5,T*20
$IIRSA,-7,A,,V*4D
$IIMWV,353.5,R,3.9,N,A*37
$IIMWV,194.5,T,1.7,N,A*34
$IIVHW,242.5,T,241.5,M,5.59,N,10.35,K*68
$IIBWC,082337,,,,,,T,,M,,N,*0C
$IIDBT,12.7,f,3.87,M,2.11,F*2B
$IIGGA,082337,4000.593,N,01529.096,E,1,07,1,0,M,45,M,,*4A
$IIGLL,4000.593,N,01529.096,E,082337,A*3B
$IIHDM,242.5,M*23
$IIHDT,243.5,T*22
$IIRSA,-7,A,,V*4D
$IIMWV,331.5,R,3.5,N,A*3F
$IIMWV,213.5,T,3.0,N,A*3D
$IIVHW,244.5,T,243.5,M,5.59,N,10.35,K*6C
$IIMWD,095.5,T,094.5,M,3.2,N,1.6,M*43
$IIVLW,43891.9,N,6.71,N*73
$IIVTG,238.0,T,237.0,M,6.4,N,11.9,K*6D
$IIBWC,082338,,,,,,T,,M,,N,*03
$IIDBT,12.7,f,3.87,M,2.11,F*2B
$IIGGA,082338,4000.591,N,01529.092,E,1,08,1,1,M,45,M,,*4D
$IIGLL,4000.591,N,01529.092,E,082338,A*32
$IIHDM,246.0,M*22
$IIHDT,247.0,T*23
$IIRSA,-8,A,,V*42
$IIMWV,277.5,R,3.1,N,A*38
$IIMWV,209.5,T,6.2,N,A*31
$IIVHW,248.0,T,247.0,M,5.84,N,10.81,K*6B
$IIBWC,082340,,,,,,T,,M,,N,*0C
$IIDBT,12.7,f,3.87,M,2.11,F*2B
$IIGGA,082340,4000.589,N,01529.088,E,1,08,1,1,M,45,M,,*40
$IIGLL,4000.589,N,01529.088,E,082340,A*3F
$IIHDM,250.0,M*25
$IIHDT,251.0,T*24
$IIRSA,-10,A,,V*7B
$IIMWV,325.0,R,3.4,N,A*3E
$IIMWV,212.5,T,3.6,N,A*3A
$IIVHW,251.0,T,250.0,M,5.84,N,10.81,K*65
$IIGSA,,3,25,29,12,02,24,14,31,06,,,,,,1,*71
$IIMTW,31.1,C*10
$IIZDA,082342,23,08,2015,,*5F
$IIMWD,105.0,T,104.0,M,5.0,N,2.6,M*44
$IIVLW,43891.9,N,6.71,N*73
$IIVTG,241.5,T,240.5,M,6.4,N,11.9,K*63
$IIBWC,082343,,,,,,T,,M,,N,*0F
$IIDBT,12.7,f,3.87,M,2.11,F*2B
$IIGGA,082343,4000.588,N,01529.083,E,1,08,1,1,M,45,M,,*49
$IIGLL,4000.588,N,01529.083,E,082343,A*36
$IIHDM,251.5,M*21
$IIHDT,252.5,T*22
$IIRSA,-10,A,,V*7B
$IIMWV,342.5,R,4.0,N,A*39
$IIMWV,218.0,T,1.9,N,A*38
$IIVHW,252.5,T,251.5,M,5.35,N,9.91,K*54
$IIBWC,082344,,,,,,T,,M,,N,*08
$IIDBT,12.7,f,3.87,M,2.11,F*2B
$IIGGA,082344,4000.586,N,01529.079,E,1,08,1,1,M,45,M,,*45
$IIGLL,4000.586,N,01529.079,E,082344,A*3A
$IIHDM,251.0,M*24
$IIHDT,252.0,T*27
$IIRSA,-11,A,,V*7A
$IIMWV,341.0,R,3.8,N,A*30
$IIMWV,212.0,T,2.3,N,A*3B
$IIVHW,252.0,T,251.0,M,5.59,N,10.35,K*68
$IIBWC,082346,,,,,,T,,M,,N,*0A
$IIDBT,12.7,f,3.87,M,2.11,F*2B
$IIGGA,082346,4000.585,N,01529.075,E,1,08,1,1,M,45,M,,*48
$IIGLL,4000.585,N,01529.075,E,082346,A*37
$IIHDM,251.0,M*24
$IIHDT,252.0,T*27
$IIRSA,-10,A,,V*7B
$IIMWV,337.5,R,3.5,N,A*39
$IIMWV,209.5,T,2.7,N,A*30
$IIVHW,252.5,T,251.5,M,5.59,N,10.35,K*68
$IIMWD,105.0,T,104.0,M,3.0,N,1.5,M*42
$IIVLW,43891.9,N,6.71,N*73
$IIVTG,244.0,T,243.0,M,6.4,N,11.9,K*65
$IIBWC,082348,,,,,,T,,M,,N,*04
$IIDBT,12.7,f,3.87,M,2.11,F*2B
$IIGGA,082348,4000.584,N,01529.070,E,1,08,1,1,M,45,M,,*42
$IIGLL,4000.584,N,01529.070,E,082348,A*3D
$IIHDM,250.0,M*25
$IIHDT,251.0,T*24
$IIRSA,-9,A,,V*43
$IIMWV,323.0,R,3.5,N,A*39
$IIMWV,215.0,T,3.7,N,A*39
$IIVHW,252.5,T,251.5,M,5.84,N,10.81,K*67
$IIBWC,082350,,,,,,T,,M,,N,*0D
$IIDBT,12.7,f,3.87,M,2.11,F*2B
$IIGGA,082350,4000.583,N,01529.066,E,1,08,1,1,M,45,M,,*4B
$IIGLL,4000.583,N,01529.066,E,082350,A*34
$IIHDM,251.5,M*21
$IIHDT,252.5,T*22
$IIRSA,-8,A,,V*42
$IIMWV,341.5,R,3.1,N,A*3C
$IIMWV,203.5,T,2.4,N,A*39
$IIVHW,252.5,T,251.5,M,5.17,N,9.57,K*5E
$IIGSA,,3,25,29,12,02,24,31,14,06,,,,,,1,*71
$IIMTW,31.1,C*10
$IIZDA,082352,23,08,2015,,*5E
$IIMWD,110.5,T,109.5,M,4.5,N,2.3,M*4C
$IIVLW,43891.9,N,6.71,N*73
$IIVTG,246.0,T,245.0,M,6.4,N,11.9,K*61
$IIBWC,082353,,,,,,T,,M,,N,*0E
$IIDBT,12.7,f,3.87,M,2.11,F*2B
$IIGGA,082353,4000.580,N,01529.057,E,1,07,2,1,M,45,M,,*45
$IIGLL,4000.580,N,01529.057,E,082353,A*36
$IIHDM,257.5,M*27
$IIHDT,258.5,T*28
$IIRSA,-9,A,,V*43
$IIMWV,357.5,R,3.7,N,A*3D
$IIMWV,184.5,T,1.8,N,A*3A
$IIVHW,257.0,T,256.0,M,5.59,N,10.35,K*6A
$IIBWC,082354,,,,,,T,,M,,N,*09
$IIDBT,12.7,f,3.87,M,2.11,F*2B
$IIGGA,082354,4000.580,N,01529.057,E,1,07,2,1,M,45,M,,*42
$IIGLL,4000.580,N,01529.057,E,082354,A*31
$IIHDM,255.5,M*25
$IIHDT,256.5,T*26
$IIRSA,-10,A,,V*7B
$IIMWV,317.0,R,3.3,N,A*38
$IIMWV,215.5,T,3.9,N,A*32
$IIVHW,256.5,T,255.5,M,5.59,N,10.35,K*68
$IIBWC,082356,,,,,,T,,M,,N,*0B
$IIDBT,12.7,f,3.87,M,2.11,F*2B
$IIGGA,082356,4000.579,N,01529.053,E,1,08,1,1,M,45,M,,*4E
$IIGLL,4000.579,N,01529.053,E,082356,A*31
$IIHDM,256.5,M*26
$IIHDT,257.5,T*27
$IIRSA,-10,A,,V*7B
$IIMWV,332.0,R,3.4,N,A*38
$IIMWV,211.5,T,3.0,N,A*3F
$IIVHW,257.5,T,256.5,M,5.59,N,10.35,K*6A
$IIMWD,109.0,T,108.0,M,2.7,N,1.4,M*45
$IIVLW,43891.9,N,6.71,N*73
$IIVTG,248.5,T,247.5,M,6.4,N,11.9,K*6D
$IIBWC,082358,,,,,,T,,M,,N,*05
$IIDBT,12.7,f,3.87,M,2.11,F*2B
$IIGGA,082358,4000.578,N,01529.048,E,1,08,1,0,M,45,M,,*4A
$IIGLL,4000.578,N,01529.048,E,082358,A*34
$IIHDM,257.5,M*27
$IIHDT,258.5,T*28
$IIRSA,-10,A,,V*7B
$IIMWV,009.0,R,3.7,N,A*30
$IIMWV,163.5,T,2.0,N,A*38
$IIVHW,258.5,T,257.5,M,5.59,N,10.35,K*64
$IIBWC,082400,,,,,,T,,M,,N,*0F
$IIDBT,12.7,f,3.87,M,2.11,F*2B
$IIGGA,082400,4000.577,N,01529.044,E,1,08,1,0,M,45,M,,*43
$IIGLL,4000.577,N,01529.044,E,082400,A*3D
$IIHDM,256.0,M*23
$IIHDT,257.0,T*22
$IIRSA,-10,A,,V*7B
$IIMWV,336.5,R,3.6,N,A*3B
$IIMWV,209.5,T,2.9,N,A*3E
$IIVHW,257.0,T,256.0,M,5.84,N,10.81,K*65
$IIGSA,,3,25,29,12,02,24,31,14,06,,,,,,1,*71
$IIMTW,31.1,C*10
$IIZDA,082402,23,08,2015,,*5C
$IIMWD,115.0,T,114.0,M,4.5,N,2.3,M*45
$IIVLW,43891.9,N,6.71,N*73
$IIVTG,250.5,T,249.5,M,6.4,N,11.9,K*6A
$IIBWC,082403,,,,,,T,,M,,N,*0C
$IIDBT,12.7,f,3.87,M,2.11,F*2B
$IIGGA,082403,4000.575,N,01529.035,E,1,08,1,0,M,45,M,,*44
$IIGLL,4000.575,N,01529.035,E,082403,A*3A
$IIHDM,255.0,M*20
$IIHDT,256.0,T*23
$IIRSA,-10,A,,V*7B
$IIMWV,311.5,R,4.3,N,A*3C
$IIMWV,225.0,T,4.5,N,A*3F
$IIVHW,256.0,T,255.0,M,6.08,N,11.26,K*6C
$IIBWC,082404,,,,,,T,,M,,N,*0B
$IIDBT,12.7,f,3.87,M,2.11,F*2B
$IIGGA,082404,4000.575,N,01529.035,E,1,08,1,0,M,45,M,,*43
$IIGLL,4000.575,N,01529.035,E,082404,A*3D
$IIHDM,256.0,M*23
$IIHDT,256.0,T*23
$IIRSA,-10,A,,V*7B
$IIMWV,024.0,R,3.9,N,A*31
$IIMWV,147.5,T,2.9,N,A*37
$IIVHW,256.0,T,255.0,M,6.08,N,11.26,K*6C
$IIBWC,082406,,,,,,T,,M,,N,*09
$IIDBT,12.7,f,3.87,M,2.11,F*2B
$IIGGA,082406,4000.574,N,01529.030,E,1,07,1,0,M,45,M,,*4A
$IIGLL,4000.574,N,01529.030,E,082406,A*3B
$IIHDM,255.5,M*25
$IIHDT,256.5,T*26
$IIRSA,-10,A,,V*7B
$IIMWV,275.0,R,3.7,N,A*39
$IIMWV,216.5,T,6.2,N,A*3F
$IIVHW,256.5,T,255.5,M,5.35,N,9.91,K*54
$IIMWD,083.5,T,082.5,M,1.1,N,0.6,M*43
$IIVLW,43891.9,N,6.71,N*73
$IIVTG,251.5,T,250.5,M,6.4,N,11.9,K*63
$IIBWC,082408,,,,,,T,,M,,N,*07
$IIDBT,12.7,f,3.87,M,2.11,F*2B
$IIGGA,082408,4000.573,N,01529.026,E,1,08,1,0,M,45,M,,*4B
$IIGLL,4000.573,N,01529.026,E,082408,A*35
$IIHDM,258.0,M*2D
$IIHDT,258.5,T*28
$IIRSA,-10,A,,V*7B
$IIMWV,340.5,R,3.7,N,A*3B
$IIMWV,213.5,T,2.2,N,A*3E
$IIVHW,258.5,T,257.5,M,5.35,N,9.91,K*58
$IIBWC,082410,,,,,,T,,M,,N,*0E
$IIDBT,12.7,f,3.87,M,2.11,F*2B
$IIGGA,082410,4000.572,N,01529.021,E,1,08,1,0,M,45,M,,*44
$IIGLL,4000.572,N,01529.021,E,082410,A*3A
$IIHDM,255.5,M*25
$IIHDT,256.0,T*23
$IIRSA,-10,A,,V*7B
$IIMWV,328.5,R,3.3,N,A*31
$IIMWV,216.0,T,4.0,N,A*3A
$IIVHW,256.0,T,255.0,M,5.84,N,10.81,K*67
$IIGSA,,3,25,29,12,02,24,31,14,06,,,,,,1,*71
$IIMTW,30.7,C*17
$IIZDA,082412,23,08,2015,,*5D
$IIMWD,108.5,T,107.5,M,2.5,N,1.3,M*4E
$IIVTG,252.5,T,251.5,M,6.4,N,11.9,K*61
$IIBWC,082413,,,,,,T,,M,,N,*0D
$IIDBT,12.7,f,3.87,M,2.11,F*2B
$IIGGA,082413,4000.571,N,01529.017,E,1,06,2,0,M,45,M,,*4C
$IIGLL,4000.571,N,01529.017,E,082413,A*3F
$IIHDM,256.0,M*23
$IIHDT,257.0,T*22
$IIRSA,-10,A,,V*7B
$IIMWV,315.5,R,3.8,N,A*34
$IIMWV,223.0,T,3.9,N,A*32
$IIVHW,256.5,T,255.5,M,5.59,N,10.35,K*68
$IIBWC,082414,,,,,,T,,M,,N,*0A
$IIDBT,12.7,f,3.87,M,2.11,F*2B
$IIGGA,082414,4000.570,N,01529.012,E,1,08,1,0,M,45,M,,*42
$IIGLL,4000.570,N,01529.012,E,082414,A*3C
$IIHDM,255.0,M*20
$IIHDT,256.0,T*23
$IIRSA,-10,A,,V*7B
$IIMWV,011.5,R,3.5,N,A*3E
$IIMWV,162.0,T,2.2,N,A*3E
$IIVHW,257.0,T,256.0,M,5.59,N,10.35,K*6A
$IIBWC,082416,,,,,,T,,M,,N,*08
$IIDBT,12.7,f,3.87,M,2.11,F*2B
$IIGGA,082416,4000.569,N,01529.008,E,1,08,1,0,M,45,M,,*43
$IIGLL,4000.569,N,01529.008,E,082416,A*3D
$IIHDM,257.5,M*27
$IIHDT,258.5,T*28
$IIRSA,-11,A,,V*7A
$IIMWV,342.0,R,3.9,N,A*32
$IIMWV,212.5,T,2.2,N,A*3F
$IIVHW,256.5,T,255.5,M,5.59,N,10.35,K*68
$IIMWD,108.0,T,107.0,M,2.2,N,1.1,M*4B
$IIVTG,252.5,T,251.5,M,6.4,N,11.9,K*61
$IIBWC,082418,,,,,,T,,M,,N,*06
$IIDBT,12.7,f,3.87,M,2.11,F*2B
$IIGGA,082418,4000.568,N,01529.003,E,1,08,1,-1,M,45,M,,*6B
$IIGLL,4000.568,N,01529.003,E,082418,A*39
$IIHDM,255.0,M*20
$IIHDT,256.0,T*23
$IIRSA,-10,A,,V*7B
$IIMWV,314.0,R,3.6,N,A*3E
$IIMWV,222.0,T,4.2,N,A*3F
$IIVHW,256.5,T,255.5,M,5.84,N,10.81,K*67
$IIBWC,082420,,,,,,T,,M,,N,*0D
$IIDBT,12.7,f,3.87,M,2.11,F*2B
$IIGGA,082420,4000.567,N,01528.999,E,1,08,1,-1,M,45,M,,*64
$IIGLL,4000.567,N,01528.999,E,082420,A*36
$IIHDM,256.0,M*23
$IIHDT,257.0,T*22
$IIRSA,-10,A,,V*7B
$IIMWV,005.0,R,3.4,N,A*3F
$IIMWV,172.5,T,2.2,N,A*3A
$IIVHW,257.0,T,256.0,M,5.57,N,10.31,K*60
$IIGSA,,3,25,29,12,02,24,31,14,06,,,,,,1,*71
$IIMTW,31.1,C*10
$IIZDA,082422,23,08,2015,,*5E
$IIMWD,115.5,T,114.5,M,3.7,N,1.9,M*49
$IIVTG,252.5,T,251.5,M,6.4,N,11.9,K*61
$IIBWC,082423,,,,,,T,,M,,N,*0E
$IIDBT,12.7,f,3.87,M,2.11,F*2B
$IIGGA,082423,4000.566,N,01528.994,E,1,08,1,-1,M,45,M,,*6B
$IIGLL,4000.565,N,01528.990,E,082423,A*3E
$IIHDM,255.5,M*25
$IIHDT,256.5,T*26
$IIRSA,-10,A,,V*7B
$IIMWV,007.0,R,4.2,N,A*3C
$IIMWV,167.0,T,2.2,N,A*3B
$IIVHW,257.5,T,256.5,M,6.32,N,11.70,K*64
$IIBWC,082424,,,,,,T,,M,,N,*09
$IIDBT,12.7,f,3.87,M,2.11,F*2B
$IIGGA,082424,4000.565,N,01528.990,E,1,07,2,-1,M,45,M,,*67
$IIGLL,4000.565,N,01528.990,E,082424,A*39
$IIHDM,253.5,M*23
$IIHDT,254.5,T*24
$IIRSA,-10,A,,V*7B
$IIMWV,314.5,R,3.7,N,A*3A
$IIMWV,219.0,T,4.1,N,A*34
$IIVHW,255.0,T,254.0,M,5.84,N,10.81,K*65
$IIBWC,082426,,,,,,T,,M,,N,*0B
$IIDBT,12.7,f,3.87,M,2.11,F*2B
$IIGGA,082426,4000.564,N,01528.985,E,1,08,1,-1,M,45,M,,*6C
$IIGLL,4000.564,N,01528.985,E,082426,A*3E
$IIHDM,256.5,M*26
$IIHDT,257.5,T*27
$IIRSA,-10,A,,V*7B
$IIMWV,310.0,R,4.4,N,A*3F
$IIMWV,228.0,T,4.5,N,A*32
$IIVHW,256.0,T,255.0,M,5.84,N,10.81,K*67
$IIMWD,073.5,T,072.5,M,1.9,N,1.0,M*4C
$IIVTG,252.0,T,251.0,M,6.4,N,11.9,K*61
$IIBWC,082428,,,,,,T,,M,,N,*05
$IIDBT,12.7,f,3.87,M,2.11,F*2B
$IIGGA,082428,4000.563,N,01528.981,E,1,08,1,-2,M,45,M,,*62
$IIGLL,4000.563,N,01528.981,E,082428,A*33
$IIHDM,257.0,M*22
$IIHDT,258.0,T*2D
$IIRSA,-10,A,,V*7B
$IIMWV,317.5,R,3.7,N,A*39
$IIMWV,221.0,T,3.7,N,A*3E
$IIVHW,258.5,T,257.5,M,5.59,N,10.35,K*64
$IIBWC,082430,,,,,,T,,M,,N,*0C
$IIDBT,12.7,f,3.87,M,2.11,F*2B
$IIGGA,082430,4000.562,N,01528.976,E,1,08,1,-2,M,45,M,,*62
$IIGLL,4000.562,N,01528.976,E,082430,A*33
$IIHDM,255.0,M*20
$IIHDT,256.0,T*23
$IIRSA,-11,A,,V*7A
$IIMWV,014.0,R,3.6,N,A*3D
$IIMWV,157.5,T,2.2,N,A*3D
$IIVHW,256.0,T,255.0,M,5.59,N,10.35,K*68
$IIGSA,,3,25,29,12,02,24,31,14,06,,,,,,1,*71
$IIMTW,30.7,C*17
$IIZDA,082432,23,08,2015,,*5F
$IIMWD,118.0,T,117.0,M,4.5,N,2.3,M*4B
$IIVTG,252.5,T,251.5,M,6.4,N,11.9,K*61
$IIBWC,082433,,,,,,T,,M,,N,*0F
$IIDBT,12.7,f,3.87,M,2.11,F*2B
$IIGGA,082433,4000.561,N,01528.972,E,1,08,1,-2,M,45,M,,*66
$IIGLL,4000.561,N,01528.972,E,082433,A*37
$IIHDM,255.5,M*25
$IIHDT,256.5,T*26
$IIRSA,-10,A,,V*7B
$IIMWV,332.0,R,4.2,N,A*39
$IIMWV,226.5,T,2.7,N,A*3D
$IIVHW,256.5,T,255.5,M,5.59,N,10.35,K*68
$IIBWC,082434,,,,,,T,,M,,N,*08
$IIDBT,12.7,f,3.87,M,2.11,F*2B
$IIGGA,082434,4000.560,N,01528.967,E,1,08,1,-2,M,45,M,,*64
$IIGLL,4000.560,N,01528.967,E,082434,A*35
$IIHDM,256.0,M*23
$IIHDT,257.0,T*22
$IIRSA,-10,A,,V*7B
$IIMWV,353.0,R,4.0,N,A*3C
$IIMWV,180.0,T,2.1,N,A*31
$IIVHW,257.0,T,256.0,M,5.84,N,10.81,K*65
$IIBWC,082436,,,,,,T,,M,,N,*0A
$IIDBT,12.7,f,3.87,M,2.11,F*2B
$IIGGA,082436,4000.559,N,01528.963,E,1,08,1,-2,M,45,M,,*68
$IIGLL,4000.559,N,01528.963,E,082436,A*39
$IIHDM,255.5,M*25
$IIHDT,256.5,T*26
$IIRSA,-10,A,,V*7B
$IIMWV,335.0,R,3.7,N,A*3C
$IIMWV,210.0,T,3.1,N,A*3A
$IIVHW,256.5,T,255.5,M,6.08,N,11.26,K*6C
$IIMWD,112.5,T,111.5,M,3.4,N,1.8,M*49
$IIVLW,43892.0,N,6.81,N*76
$IIVTG,252.5,T,251.5,M,6.4,N,11.9,K*61
$IIBWC,082438,,,,,,T,,M,,N,*04
$IIDBT,12.7,f,3.87,M,2.11,F*2B
$IIGGA,082438,4000.558,N,01528.958,E,1,08,1,0,M,45,M,,*40
$IIGLL,4000.558,N,01528.958,E,082438,A*3E
$IIHDM,255.0,M*20
$IIHDT,256.0,T*23
$IIRSA,-10,A,,V*7B
$IIMWV,320.0,R,3.9,N,A*36
$IIMWV,224.0,T,3.6,N,A*3A
$IIVHW,255.5,T,254.5,M,5.59,N,10.35,K*6A
$IIBWC,082440,,,,,,T,,M,,N,*0B
$IIDBT,12.7,f,3.87,M,2.11,F*2B
$IIGGA,082440,4000.557,N,01528.954,E,1,08,1,0,M,45,M,,*4C
$IIGLL,4000.557,N,01528.954,E,082440,A*32
$IIHDM,256.5,M*26
$IIHDT,257.5,T*27
$IIRSA,-10,A,,V*7B
$IIMWV,336.0,R,3.6,N,A*3E
$IIMWV,210.0,T,2.9,N,A*33
$IIVHW,256.0,T,255.0,M,5.84,N,10.81,K*67
$IIGSA,,3,25,29,12,02,24,31,14,06,,,,,,1,*71
$IIMTW,31.1,C*10
$IIZDA,082442,23,08,2015,,*58
$IIMWD,078.5,T,077.5,M,1.7,N,0.9,M*44
$IIVLW,43892.0,N,6.81,N*76
$IIVTG,252.5,T,251.5,M,6.4,N,11.9,K*61
$IIBWC,082443,,,,,,T,,M,,N,*08
$IIDBT,11.0,f,3.35,M,1.83,F*2E
$IIGGA,082443,4000.556,N,01528.949,E,1,08,1,0,M,45,M,,*42
$IIGLL,4000.556,N,01528.949,E,082443,A*3C
$IIHDM,255.0,M*20
$IIHDT,256.0,T*23
$IIRSA,-10,A,,V*7B
$IIMWV,326.5,R,3.7,N,A*3B
$IIMWV,219.5,T,3.2,N,A*35
$IIVHW,257.5,T,256.5,M,5.58,N,10.33,K*6D
$IIBWC,082444,,,,,,T,,M,,N,*0F
$IIDBT,11.0,f,3.35,M,1.83,F*2E
$IIGGA,082444,4000.555,N,01528.945,E,1,08,1,0,M,45,M,,*4A
$IIGLL,4000.555,N,01528.945,E,082444,A*34
$IIHDM,256.0,M*23
$IIHDT,257.0,T*22
$IIRSA,-10,A,,V*7B
$IIMWV,285.0,R,4.0,N,A*36
$IIMWV,219.0,T,6.1,N,A*36
$IIVHW,257.0,T,256.0,M,5.83,N,10.80,K*63
$IIBWC,082446,,,,,,T,,M,,N,*0D
$IIDBT,11.0,f,3.35,M,1.83,F*2E
$IIGGA,082446,4000.554,N,01528.940,E,1,08,1,0,M,45,M,,*4C
$IIGLL,4000.554,N,01528.940,E,082446,A*32
$IIHDM,256.5,M*26
$IIHDT,257.5,T*27
$IIRSA,-10,A,,V*7B
$IIMWV,357.0,R,3.9,N,A*36
$IIMWV,186.0,T,1.9,N,A*3C
$IIVHW,258.5,T,257.5,M,5.83,N,10.80,K*6D
$IIMWD,098.5,T,097.5,M,1.9,N,1.0,M*42
$IIVLW,43892.0,N,6.81,N*76
$IIVTG,252.5,T,251.5,M,6.4,N,11.9,K*61
$IIBWC,082448,,,,,,T,,M,,N,*03
$IIDBT,11.0,f,3.35,M,1.83,F*2E
$IIGGA,082448,4000.553,N,01528.936,E,1,08,1,0,M,45,M,,*44
$IIGLL,4000.553,N,01528.936,E,082448,A*3A
$IIHDM,256.0,M*23
$IIHDT,257.0,T*22
$IIRSA,-10,A,,V*7B
$IIMWV,336.0,R,3.9,N,A*31
$IIMWV,218.0,T,2.5,N,A*37
$IIVHW,257.0,T,256.0,M,5.83,N,10.80,K*63
$IIBWC,082450,,,,,,T,,M,,N,*0A
$IIDBT,11.0,f,3.35,M,1.83,F*2E
$IIGGA,082450,4000.552,N,01528.931,E,1,08,1,0,M,45,M,,*4B
$IIGLL,4000.552,N,01528.931,E,082450,A*35
$IIHDM,255.0,M*20
$IIHDT,256.0,T*23
$IIRSA,-10,A,,V*7B
$IIMWV,333.5,R,4.9,N,A*36
$IIMWV,227.0,T,1.1,N,A*3C
$IIVHW,256.0,T,255.0,M,5.58,N,10.33,K*6F
$IIGSA,,3,25,29,12,02,24,31,14,06,,,,,,1,*71
$IIMTW,30.7,C*17
$IIZDA,082452,23,08,2015,,*59
$IIMWD,128.0,T,127.0,M,1.6,N,0.8,M*44
$IIVLW,43892.0,N,6.81,N*76
$IIVTG,252.5,T,251.5,M,6.4,N,11.9,K*61
$IIBWC,082453,,,,,,T,,M,,N,*09
$IIDBT,11.0,f,3.35,M,1.83,F*2E
$IIGGA,082453,4000.551,N,01528.927,E,1,08,1,0,M,45,M,,*4C
$IIGLL,4000.551,N,01528.927,E,082453,A*32
$IIHDM,256.0,M*23
$IIHDT,257.0,T*22
$IIRSA,-10,A,,V*7B
$IIMWV,326.0,R,4.3,N,A*3D
$IIMWV,230.0,T,3.1,N,A*38
$IIVHW,257.0,T,256.0,M,5.58,N,10.33,K*6D
$IIBWC,082454,,,,,,T,,M,,N,*0E
$IIDBT,11.0,f,3.35,M,1.83,F*2E
$IIGGA,082454,4000.550,N,01528.922,E,1,08,1,0,M,45,M,,*4F
$IIGLL,4000.550,N,01528.922,E,082454,A*31
$IIHDM,255.0,M*20
$IIHDT,256.0,T*23
$IIRSA,-10,A,,V*7B
$IIMWV,344.5,R,4.3,N,A*3C
$IIMWV,208.0,T,2.4,N,A*37
$IIVHW,256.0,T,255.0,M,6.31,N,11.69,K*6D
$IIBWC,082456,,,,,,T,,M,,N,*0C
$IIDBT,11.0,f,3.35,M,1.83,F*2E
$IIGGA,082456,4000.549,N,01528.918,E,1,08,1,0,M,45,M,,*4C
$IIGLL,4000.549,N,01528.918,E,082456,A*32
$IIHDM,255.5,M*25
$IIHDT,256.5,T*26
$IIRSA,-10,A,,V*7B
$IIMWV,336.5,R,4.7,N,A*3D
$IIMWV,236.0,T,2.2,N,A*3C
$IIVHW,256.5,T,255.5,M,5.83,N,10.80,K*61
$IIMWD,126.5,T,125.5,M,2.4,N,1.2,M*42
$IIVLW,43892.0,N,6.81,N*76
$IIVTG,252.5,T,251.5,M,6.4,N,11.9,K*61
$IIBWC,082458,,,,,,T,,M,,N,*02
$IIDBT,11.0,f,3.35,M,1.83,F*2E
$IIGGA,082458,4000.548,N,01528.913,E,1,07,2,0,M,45,M,,*44
$IIGLL,4000.548,N,01528.913,E,082458,A*36
$IIHDM,255.0,M*20
$IIHDT,256.0,T*23
$IIRSA,-10,A,,V*7B
$IIMWV,313.0,R,4.2,N,A*3A
$IIMWV,231.0,T,3.9,N,A*31
$IIVHW,256.0,T,255.0,M,5.58,N,10.33,K*6F
$IIBWC,082500,,,,,,T,,M,,N,*0E
$IIDBT,11.0,f,3.35,M,1.83,F*2E
$IIGGA,082500,4000.547,N,01528.909,E,1,08,1,0,M,45,M,,*40
$IIGLL,4000.547,N,01528.909,E,082500,A*3E
$IIHDM,256.0,M*23
$IIHDT,257.0,T*22
$IIRSA,-10,A,,V*7B
$IIMWV,001.5,R,4.4,N,A*39
$IIMWV,173.0,T,0.9,N,A*37
$IIVHW,257.0,T,256.0,M,5.34,N,9.89,K*5E
$IIGSA,,3,25,29,12,02,31,14,06,,,,,,,1,*77
$IIMTW,31.1,C*10
$IIZDA,082502,23,08,2015,,*5D
$IIMWD,097.0,T,096.0,M,1.6,N,0.8,M*4A
$IIVLW,43892.0,N,6.81,N*76
$IIVTG,252.5,T,251.5,M,6.3,N,11.7,K*68
$IIBWC,082503,,,,,,T,,M,,N,*0D
$IIDBT,11.0,f,3.35,M,1.83,F*2E
$IIGGA,082503,4000.546,N,01528.905,E,1,08,1,0,M,45,M,,*4E
$IIGLL,4000.546,N,01528.905,E,082503,A*30
$IIHDM,256.0,M*23
$IIHDT,257.0,T*22
$IIRSA,-10,A,,V*7B
$IIMWV,337.5,R,4.5,N,A*3E
$IIMWV,225.5,T,2.4,N,A*3D
$IIVHW,257.0,T,256.0,M,5.83,N,10.80,K*63
$IIBWC,082504,,,,,,T,,M,,N,*0A
$IIDBT,11.0,f,3.35,M,1.83,F*2E
$IIGGA,082504,4000.545,N,01528.900,E,1,08,1,0,M,45,M,,*4F
$IIGLL,4000.545,N,01528.900,E,082504,A*31
$IIHDM,255.0,M*20
$IIHDT,256.0,T*23
$IIRSA,-10,A,,V*7B
$IIMWV,343.5,R,4.2,N,A*3A
$IIMWV,222.5,T,1.7,N,A*3A
$IIVHW,255.5,T,254.5,M,5.34,N,9.89,K*5E
$IIBWC,082506,,,,,,T,,M,,N,*08
$IIDBT,11.0,f,3.35,M,1.83,F*2E
$IIGGA,082506,4000.544,N,01528.896,E,1,08,1,0,M,45,M,,*42
$IIGLL,4000.544,N,01528.896,E,082506,A*3C
$IIHDM,255.5,M*25
$IIHDT,257.0,T*22
$IIRSA,-9,A,,V*43
$IIMWV,348.0,R,4.8,N,A*3E
$IIMWV,221.5,T,1.5,N,A*3B
$IIVHW,257.0,T,256.0,M,5.83,N,10.80,K*63
$IIMWD,104.5,T,103.5,M,1.6,N,0.8,M*4C
$IIVLW,43892.0,N,6.81,N*76
$IIVTG,252.5,T,251.5,M,6.4,N,11.9,K*61
$IIBWC,082508,,,,,,T,,M,,N,*06
$IIDBT,11.0,f,3.35,M,1.83,F*2E
$IIGGA,082507,4000.543,N,01528.892,E,1,08,1,0,M,45,M,,*40
$IIGLL,4000.543,N,01528.892,E,082507,A*3E
$IIHDM,256.0,M*23
$IIHDT,257.0,T*22
$IIRSA,-10,A,,V*7B
$IIMWV,329.5,R,4.6,N,A*32
$IIMWV,235.0,T,2.8,N,A*35
$IIVHW,259.0,T,258.0,M,5.58,N,10.33,K*6D
$IIBWC,082509,,,,,,T,,M,,N,*07
$IIDBT,11.0,f,3.35,M,1.83,F*2E
$IIGGA,082509,4000.542,N,01528.887,E,1,07,2,0,M,45,M,,*47
$IIGLL,4000.542,N,01528.887,E,082509,A*35
$IIHDM,256.5,M*26
$IIHDT,256.5,T*26
$IIRSA,-10,A,,V*7B
$IIMWV,009.5,R,3.9,N,A*3B
$IIMWV,162.0,T,2.0,N,A*3C
$IIVHW,256.5,T,255.5,M,5.83,N,10.80,K*61
$IIGSA,,3,25,29,12,02,31,14,06,,,,,,,2,*74
$IIMTW,30.7,C*17
$IIZDA,082511,23,08,2015,,*5F
$IIMWD,120.5,T,119.5,M,3.1,N,1.6,M*4B
$IIVTG,252.5,T,251.5,M,6.4,N,11.9,K*61
$IIBWC,082512,,,,,,T,,M,,N,*0D
$IIDBT,11.0,f,3.35,M,1.83,F*2E
$IIGGA,082512,4000.541,N,01528.883,E,1,08,1,0,M,45,M,,*46
$IIGLL,4000.541,N,01528.883,E,082512,A*38
$IIHDM,255.0,M*20
$IIHDT,256.5,T*26
$IIRSA,-10,A,,V*7B
$IIMWV,010.5,R,4.0,N,A*3D
$IIMWV,156.0,T,1.8,N,A*30
$IIVHW,256.5,T,255.5,M,5.58,N,10.33,K*6F
$IIBWC,082513,,,,,,T,,M,,N,*0C
$IIDBT,11.0,f,3.35,M,1.83,F*2E
$IIGGA,082513,4000.539,N,01528.878,E,1,07,2,0,M,45,M,,*40
$IIGLL,4000.539,N,01528.878,E,082513,A*32
$IIHDM,256.5,M*26
$IIHDT,257.5,T*27
$IIRSA,-10,A,,V*7B
$IIMWV,329.5,R,3.9,N,A*3A
$IIMWV,222.0,T,2.9,N,A*32
$IIVHW,258.5,T,257.5,M,5.58,N,10.33,K*63
$IIBWC,082515,,,,,,T,,M,,N,*0A
$IIDBT,11.0,f,3.35,M,1.83,F*2E
$IIGGA,082515,4000.538,N,01528.874,E,1,08,1,0,M,45,M,,*47
$IIGLL,4000.538,N,01528.874,E,082515,A*39
$IIHDM,255.5,M*25
$IIHDT,256.5,T*26
$IIRSA,-10,A,,V*7B
$IIMWV,003.5,R,3.9,N,A*31
$IIMWV,170.5,T,1.4,N,A*3D
$IIVHW,257.0,T,256.0,M,5.34,N,9.89,K*5E
$IIMWD,121.0,T,120.0,M,2.7,N,1.4,M*45
$IIVTG,252.5,T,251.5,M,6.3,N,11.7,K*68
$IIBWC,082518,,,,,,T,,M,,N,*07
$IIDBT,11.0,f,3.35,M,1.83,F*2E
$IIGGA,082518,4000.537,N,01528.869,E,1,08,1,0,M,45,M,,*49
$IIGLL,4000.537,N,01528.869,E,082518,A*37
$IIHDM,255.0,M*20
$IIHDT,256.0,T*23
$IIRSA,-10,A,,V*7B
$IIMWV,326.0,R,4.2,N,A*3C
$IIMWV,225.0,T,3.3,N,A*3E
$IIVHW,256.5,T,255.5,M,5.84,N,10.81,K*67
$IIBWC,082520,,,,,,T,,M,,N,*0C
$IIDBT,11.0,f,3.35,M,1.83,F*2E
$IIGGA,082520,4000.537,N,01528.869,E,1,07,2,0,M,45,M,,*4E
$IIGLL,4000.536,N,01528.865,E,082520,A*31
$IIHDM,255.5,M*25
$IIHDT,256.5,T*26
$IIRSA,-10,A,,V*7B
$IIMWV,004.0,R,4.2,N,A*3F
$IIMWV,168.5,T,1.4,N,A*34
$IIVHW,256.5,T,255.5,M,5.59,N,10.35,K*68
$IIGSA,,3,25,29,12,02,31,24,14,06,,,,,,1,*71
$IIMTW,30.7,C*17
$IIZDA,082522,23,08,2015,,*5F
$IIMWD,129.5,T,128.5,M,2.6,N,1.3,M*43
$IIVTG,252.5,T,251.5,M,6.4,N,11.9,K*61
$IIBWC,082523,,,,,,T,,M,,N,*0F
$IIDBT,11.0,f,3.35,M,1.83,F*2E
$IIGGA,082523,4000.535,N,01528.860,E,1,08,1,0,M,45,M,,*4A
$IIGLL,4000.535,N,01528.860,E,082523,A*34
$IIHDM,256.0,M*23
$IIHDT,257.0,T*22
$IIRSA,-10,A,,V*7B
$IIMWV,343.0,R,4.4,N,A*39
$IIMWV,218.0,T,2.0,N,A*32
$IIVHW,258.5,T,257.5,M,5.84,N,10.81,K*6B
$IIBWC,082524,,,,,,T,,M,,N,*08
$IIDBT,11.0,f,3.35,M,1.83,F*2E
$IIGGA,082524,4000.534,N,01528.856,E,1,07,2,0,M,45,M,,*45
$IIGLL,4000.534,N,01528.856,E,082524,A*37
$IIHDM,256.5,M*26
$IIHDT,257.5,T*27
$IIRSA,-11,A,,V*7A
$IIMWV,008.0,R,4.0,N,A*31
$IIMWV,163.5,T,1.9,N,A*32
$IIVHW,256.5,T,255.5,M,5.84,N,10.81,K*67
$IIBWC,082526,,,,,,T,,M,,N,*0A
$IIDBT,11.0,f,3.35,M,1.83,F*2E
$IIGGA,082526,4000.534,N,01528.856,E,1,08,1,0,M,45,M,,*4B
$IIGLL,4000.533,N,01528.851,E,082526,A*35
$IIHDM,255.5,M*25
$IIHDT,256.5,T*26
$IIRSA,-10,A,,V*7B
$IIMWV,339.5,R,3.9,N,A*3B
$IIMWV,212.0,T,2.5,N,A*3D
$IIVHW,256.5,T,255.5,M,5.84,N,10.81,K*67
$IIMWD,123.5,T,122.5,M,3.4,N,1.8,M*4B
$IIVTG,253.0,T,252.0,M,6.4,N,11.9,K*63
$IIBWC,082528,,,,,,T,,M,,N,*04
$IIDBT,11.0,f,3.35,M,1.83,F*2E
$IIGGA,082528,4000.532,N,01528.847,E,1,07,2,1,M,45,M,,*4E
$IIGLL,4000.532,N,01528.847,E,082528,A*3D
$IIHDM,256.5,M*26
$IIHDT,257.5,T*27
$IIRSA,-10,A,,V*7B
$IIMWV,012.5,R,4.3,N,A*3C
$IIMWV,150.5,T,1.8,N,A*33
$IIVHW,257.0,T,256.0,M,5.84,N,10.81,K*65
$IIBWC,082530,,,,,,T,,M,,N,*0D
$IIDBT,11.0,f,3.35,M,1.83,F*2E
$IIGGA,082530,4000.531,N,01528.843,E,1,08,1,1,M,45,M,,*4C
$IIGLL,4000.531,N,01528.843,E,082530,A*33
$IIHDM,255.5,M*25
$IIHDT,256.5,T*26
$IIRSA,-10,A,,V*7B
$IIMWV,310.0,R,3.9,N,A*35
$IIMWV,193.0,T,1.7,N,A*36
$IIVHW,258.5,T,257.5,M,5.59,N,10.35,K*64
$IIGSA,,3,25,29,12,02,31,14,06,,,,,,,1,*77
$IIMTW,31.5,C*14
$IIZDA,082532,23,08,2015,,*5E
$IIMWD,073.5,T,072.5,M,1.3,N,0.7,M*40
$IIVTG,252.5,T,251.5,M,6.4,N,11.9,K*61
$IIBWC,082533,,,,,,T,,M,,N,*0E
$IIDBT,11.0,f,3.35,M,1.83,F*2E
$IIGGA,082533,4000.530,N,01528.838,E,1,08,1,1,M,45,M,,*42
$IIGLL,4000.530,N,01528.838,E,082533,A*3D
$IIHDM,257.0,M*22
$IIHDT,258.0,T*2D
$IIRSA,-10,A,,V*7B
$IIMWV,343.5,R,4.1,N,A*39
$IIMWV,211.5,T,2.2,N,A*3C
$IIVHW,257.5,T,256.5,M,5.84,N,10.81,K*65
$IIBWC,082534,,,,,,T,,M,,N,*09
$IIDBT,11.0,f,3.35,M,1.83,F*2E
$IIGGA,082534,4000.529,N,01528.834,E,1,08,1,1,M,45,M,,*41
$IIGLL,4000.529,N,01528.834,E,082534,A*3E
$IIHDM,256.5,M*26
$IIHDT,257.5,T*27
$IIRSA,-10,A,,V*7B
$IIMWV,347.5,R,4.4,N,A*38
$IIMWV,211.5,T,1.8,N,A*35
$IIVHW,256.0,T,255.0,M,5.84,N,10.81,K*67
$IIBWC,082536,,,,,,T,,M,,N,*0B
$IIDBT,11.0,f,3.35,M,1.83,F*2E
$IIGGA,082536,4000.528,N,01528.829,E,1,08,1,1,M,45,M,,*4E
$IIGLL,4000.528,N,01528.829,E,082536,A*31
$IIHDM,254.0,M*21
$IIHDT,255.0,T*20
$IIRSA,-10,A,,V*7B
$IIMWV,326.5,R,4.3,N,A*38
$IIMWV,226.5,T,3.2,N,A*39
$IIVHW,256.0,T,255.0,M,5.84,N,10.81,K*67
$IIMWD,125.5,T,124.5,M,3.1,N,1.6,M*40
$IIVLW,43892.1,N,6.91,N*76
$IIVTG,253.0,T,252.0,M,6.4,N,11.9,K*63
$IIBWC,082538,,,,,,T,,M,,N,*05
$IIDBT,11.0,f,3.35,M,1.83,F*2E
$IIGGA,082538,4000.528,N,01528.829,E,1,07,1,1,M,45,M,,*4F
$IIGLL,4000.528,N,01528.829,E,082538,A*3F
$IIHDM,256.5,M*26
$IIHDT,257.5,T*27
$IIRSA,-9,A,,V*43
$IIMWV,335.5,R,4.4,N,A*3D
$IIMWV,229.0,T,2.4,N,A*34
$IIVHW,259.5,T,258.5,M,5.59,N,10.35,K*6A
$IIBWC,082539,,,,,,T,,M,,N,*04
$IIDBT,11.0,f,3.35,M,1.83,F*2E
$IIGGA,082539,4000.526,N,01528.820,E,1,08,1,1,M,45,M,,*46
$IIGLL,4000.526,N,01528.820,E,082539,A*39
$IIHDM,256.5,M*26
$IIHDT,257.5,T*27
$IIRSA,-11,A,,V*7A
$IIMWV,008.0,R,4.2,N,A*33
$IIMWV,158.0,T,1.5,N,A*33
$IIVHW,259.0,T,258.0,M,5.59,N,10.35,K*6A
$IIGSA,,3,25,29,12,02,31,24,14,06,,,,,,1,*71
$IIMTW,31.5,C*14
$IIZDA,082541,23,08,2015,,*5A
$IIMWD,135.0,T,134.0,M,2.7,N,1.4,M*45
$IIVLW,43892.1,N,6.91,N*76
$IIVTG,253.0,T,252.0,M,6.4,N,11.9,K*63
$IIBWC,082542,,,,,,T,,M,,N,*08
$IIDBT,11.0,f,3.35,M,1.83,F*2E
$IIGGA,082542,4000.525,N,01528.816,E,1,08,1,1,M,45,M,,*4C
$IIGLL,4000.525,N,01528.816,E,082542,A*33
$IIHDM,256.0,M*23
$IIHDT,257.0,T*22
$IIRSA,-10,A,,V*7B
$IIMWV,319.5,R,5.1,N,A*37
$IIMWV,239.5,T,3.8,N,A*3D
$IIVHW,256.5,T,255.5,M,5.84,N,10.81,K*67
$IIBWC,082543,,,,,,T,,M,,N,*09
$IIDBT,11.0,f,3.35,M,1.83,F*2E
$IIGGA,082543,4000.524,N,01528.811,E,1,07,2,1,M,45,M,,*47
$IIGLL,4000.524,N,01528.811,E,082543,A*34
$IIHDM,256.5,M*26
$IIHDT,257.5,T*27
$IIRSA,-10,A,,V*7B
$IIMWV,011.0,R,4.8,N,A*31
$IIMWV,141.0,T,1.4,N,A*3A
$IIVHW,257.5,T,256.5,M,5.59,N,10.35,K*6A
$IIBWC,082545,,,,,,T,,M,,N,*0F
$IIDBT,11.0,f,3.35,M,1.83,F*2E
$IIGGA,082545,4000.523,N,01528.807,E,1,07,2,1,M,45,M,,*41
$IIGLL,4000.523,N,01528.807,E,082545,A*32
$IIHDM,256.5,M*26
$IIHDT,257.5,T*27
$IIRSA,-10,A,,V*7B
$IIMWV,338.5,R,5.0,N,A*35
$IIMWV,237.0,T,2.1,N,A*3E
$IIVHW,257.5,T,256.5,M,5.84,N,10.81,K*65
$IIMWD,133.5,T,132.5,M,3.4,N,1.8,M*4B
$IIVLW,43892.1,N,6.91,N*76
$IIVTG,253.0,T,252.0,M,6.4,N,11.9,K*63
$IIBWC,082547,,,,,,T,,M,,N,*0D
$IIDBT,11.0,f,3.35,M,1.83,F*2E
$IIGGA,082547,4000.522,N,01528.802,E,1,07,2,0,M,45,M,,*46
$IIGLL,4000.522,N,01528.802,E,082547,A*34
$IIHDM,258.5,M*28
$IIHDT,259.5,T*29
$IIRSA,-10,A,,V*7B
$IIMWV,349.0,R,5.3,N,A*35
$IIMWV,237.5,T,1.1,N,A*38
$IIVHW,259.5,T,258.5,M,5.84,N,10.81,K*65
$IIBWC,082549,,,,,,T,,M,,N,*03
$IIDBT,11.0,f,3.35,M,1.83,F*2E
$IIGGA,082549,4000.522,N,01528.802,E,1,08,1,0,M,45,M,,*44
$IIGLL,4000.522,N,01528.802,E,082549,A*3A
$IIHDM,255.5,M*25
$IIHDT,257.0,T*22
$IIRSA,-10,A,,V*7B
$IIMWV,350.5,R,4.7,N,A*3D
$IIMWV,212.5,T,1.4,N,A*3A
$IIVHW,257.0,T,256.0,M,5.84,N,10.81,K*65
$IIGSA,,3,25,29,12,02,31,14,06,,,,,,,1,*77
$IIMTW,31.1,C*10
$IIZDA,082551,23,08,2015,,*5B
$IIMWD,054.5,T,053.5,M,1.1,N,0.6,M*45
$IIVLW,43892.1,N,6.91,N*76
$IIVTG,253.0,T,252.0,M,6.4,N,11.9,K*63
$IIBWC,082552,,,,,,T,,M,,N,*09
$IIDBT,11.0,f,3.35,M,1.83,F*2E
$IIGGA,082552,4000.520,N,01528.793,E,1,07,2,0,M,45,M,,*47
$IIGLL,4000.520,N,01528.793,E,082552,A*35
$IIHDM,255.0,M*20
$IIHDT,256.0,T*23
$IIRSA,-10,A,,V*7B
$IIMWV,329.5,R,4.2,N,A*36
$IIMWV,231.0,T,2.7,N,A*3E
$IIVHW,257.0,T,256.0,M,5.35,N,9.91,K*56
$IIBWC,082553,,,,,,T,,M,,N,*08
$IIDBT,11.0,f,3.35,M,1.83,F*2E
$IIGGA,082553,4000.519,N,01528.789,E,1,08,1,0,M,45,M,,*4B
$IIGLL,4000.519,N,01528.789,E,082553,A*35
$IIHDM,256.5,M*26
$IIHDT,257.5,T*27
$IIRSA,-10,A,,V*7B
$IIMWV,340.0,R,4.4,N,A*3A
$IIMWV,178.5,T,1.3,N,A*32
$IIVHW,257.5,T,256.5,M,5.59,N,10.35,K*6A
$IIBWC,082555,,,,,,T,,M,,N,*0E
$IIDBT,11.0,f,3.35,M,1.83,F*2E
$IIGGA,082555,4000.519,N,01528.789,E,1,08,1,0,M,45,M,,*4D
$IIGLL,4000.519,N,01528.789,E,082555,A*33
$IIHDM,258.0,M*2D
$IIHDT,258.5,T*28
$IIRSA,-10,A,,V*7B
$IIMWV,328.5,R,4.5,N,A*30
$IIMWV,233.0,T,2.9,N,A*32
$IIVHW,258.5,T,257.5,M,5.59,N,10.35,K*64
$IIMWD,085.0,T,084.0,M,1.4,N,0.7,M*47
$IIVLW,43892.1,N,6.91,N*76
$IIVTG,253.0,T,252.0,M,6.3,N,11.7,K*6A
$IIBWC,082557,,,,,,T,,M,,N,*0C
$IIDBT,11.0,f,3.35,M,1.83,F*2E
$IIGGA,082557,4000.517,N,01528.780,E,1,08,1,0,M,45,M,,*48
$IIGLL,4000.517,N,01528.780,E,082557,A*36
$IIHDM,256.5,M*26
$IIHDT,257.5,T*27
$IIRSA,-10,A,,V*7B
$IIMWV,325.5,R,4.3,N,A*3B
$IIMWV,230.0,T,3.1,N,A*38
$IIVHW,257.5,T,256.5,M,5.59,N,10.35,K*6A
$IIBWC,082559,,,,,,T,,M,,N,*02
$IIDBT,11.0,f,3.35,M,1.83,F*2E
$IIGGA,082559,4000.516,N,01528.775,E,1,08,1,0,M,45,M,,*4D
$IIGLL,4000.516,N,01528.775,E,082559,A*33
$IIHDM,255.0,M*20
$IIHDT,256.0,T*23
$IIRSA,-10,A,,V*7B
$IIMWV,346.5,R,4.0,N,A*3D
$IIMWV,209.0,T,1.9,N,A*38
$IIVHW,256.0,T,255.0,M,5.59,N,10.35,K*68
$IIGSA,,3,25,29,12,02,31,24,14,06,,,,,,1,*71
$IIMTW,30.7,C*17
$IIZDA,082601,23,08,2015,,*5D
$IIMWD,126.0,T,125.0,M,2.1,N,1.1,M*44
$IIVLW,43892.1,N,6.91,N*76
$IIVTG,253.0,T,252.0,M,6.3,N,11.7,K*6A
$IIBWC,082602,,,,,,T,,M,,N,*0F
$IIDBT,11.0,f,3.35,M,1.83,F*2E
$IIGGA,082602,4000.515,N,01528.771,E,1,08,1,0,M,45,M,,*47
$IIGLL,4000.515,N,01528.771,E,082602,A*39
$IIHDM,258.0,M*2D
$IIHDT,259.0,T*2C
$IIRSA,-10,A,,V*7B
$IIMWV,344.5,R,4.4,N,A*3B
$IIMWV,221.0,T,1.7,N,A*3C
$IIVHW,259.0,T,258.0,M,5.59,N,10.35,K*6A
$IIBWC,082603,,,,,,T,,M,,N,*0E
$IIDBT,11.0,f,3.35,M,1.83,F*2E
$IIGGA,082603,4000.514,N,01528.767,E,1,08,1,0,M,45,M,,*40
$IIGLL,4000.514,N,01528.767,E,082603,A*3E
$IIHDM,256.0,M*23
$IIHDT,257.0,T*22
$IIRSA,-10,A,,V*7B
$IIMWV,334.0,R,3.9,N,A*33
$IIMWV,223.0,T,2.5,N,A*3F
$IIVHW,257.0,T,256.0,M,5.35,N,9.91,K*56
$IIBWC,082605,,,,,,T,,M,,N,*08
$IIDBT,11.0,f,3.35,M,1.83,F*2E
$IIGGA,082605,4000.513,N,01528.762,E,1,08,1,0,M,45,M,,*44
$IIGLL,4000.513,N,01528.762,E,082605,A*3A
$IIHDM,258.5,M*28
$IIHDT,259.5,T*29
$IIRSA,-10,A,,V*7B
$IIMWV,349.5,R,4.6,N,A*34
$IIMWV,218.0,T,1.3,N,A*32
$IIVHW,258.5,T,257.5,M,5.59,N,10.35,K*64
$IIMWD,126.0,T,125.0,M,4.1,N,2.1,M*41
$IIVLW,43892.1,N,6.91,N*76
$IIVTG,253.0,T,252.0,M,6.3,N,11.7,K*6A
$IIBWC,082607,,,,,,T,,M,,N,*0A
$IIDBT,11.0,f,3.35,M,1.83,F*2E
$IIGGA,082607,4000.513,N,01528.762,E,1,08,1,0,M,45,M,,*46
$IIGLL,4000.513,N,01528.762,E,082607,A*38
$IIHDM,255.0,M*20
$IIHDT,256.0,T*23
$IIRSA,-10,A,,V*7B
$IIMWV,014.5,R,4.2,N,A*3B
$IIMWV,149.5,T,2.0,N,A*30
$IIVHW,256.0,T,255.0,M,5.84,N,10.81,K*67
$IIBWC,082609,,,,,,T,,M,,N,*04
$IIDBT,11.0,f,3.35,M,1.83,F*2E
$IIGGA,082609,4000.511,N,01528.753,E,1,08,1,0,M,45,M,,*48
$IIGLL,4000.511,N,01528.753,E,082609,A*36
$IIHDM,255.5,M*25
$IIHDT,256.5,T*26
$IIRSA,-10,A,,V*7B
$IIMWV,309.5,R,4.4,N,A*32
$IIMWV,151.0,T,1.4,N,A*3B
$IIVHW,258.0,T,257.0,M,5.59,N,10.35,K*64
$IIGSA,,3,25,29,12,02,31,24,14,06,,,,,,1,*71
$IIMTW,31.1,C*10
$IIZDA,082611,23,08,2015,,*5C
$IIMWD,112.0,T,111.0,M,2.4,N,1.2,M*42
$IIVTG,253.0,T,252.0,M,6.3,N,11.7,K*6A
$IIBWC,082612,,,,,,T,,M,,N,*0E
$IIDBT,11.0,f,3.35,M,1.83,F*2E
$IIGGA,082612,4000.510,N,01528.749,E,1,08,1,0,M,45,M,,*48
$IIGLL,4000.510,N,01528.749,E,082612,A*36
$IIHDM,255.0,M*20
$IIHDT,256.0,T*23
$IIRSA,-10,A,,V*7B
$IIMWV,319.0,R,4.7,N,A*35
$IIMWV,236.5,T,3.6,N,A*3C
$IIVHW,256.0,T,255.0,M,5.59,N,10.35,K*68
$IIBWC,082613,,,,,,T,,M,,N,*0F
$IIDBT,11.0,f,3.35,M,1.83,F*2E
$IIGGA,082613,4000.510,N,01528.749,E,1,08,1,0,M,45,M,,*49
$IIGLL,4000.509,N,01528.744,E,082613,A*32
$IIHDM,257.0,M*22
$IIHDT,258.0,T*2D
$IIRSA,-10,A,,V*7B
$IIMWV,001.5,R,4.5,N,A*38
$IIMWV,174.0,T,1.0,N,A*38
$IIVHW,256.5,T,255.5,M,5.59,N,10.35,K*68
$IIBWC,082615,,,,,,T,,M,,N,*09
$IIDBT,11.0,f,3.35,M,1.83,F*2E
$IIGGA,082615,4000.509,N,01528.744,E,1,08,1,0,M,45,M,,*4A
$IIGLL,4000.508,N,01528.740,E,082615,A*31
$IIHDM,255.5,M*25
$IIHDT,256.5,T*26
$IIRSA,-10,A,,V*7B
$IIMWV,330.0,R,4.2,N,A*3B
$IIMWV,227.0,T,2.8,N,A*36
$IIVHW,257.5,T,256.5,M,5.59,N,10.35,K*6A
$IIMWD,125.0,T,124.0,M,2.8,N,1.4,M*4A
$IIVTG,253.0,T,252.0,M,6.3,N,11.7,K*6A
$IIBWC,082617,,,,,,T,,M,,N,*0B
$IIDBT,11.0,f,3.35,M,1.83,F*2E
$IIGGA,082617,4000.508,N,01528.740,E,1,08,1,0,M,45,M,,*4D
$IIGLL,4000.507,N,01528.735,E,082617,A*3E
$IIHDM,256.0,M*23
$IIHDT,257.0,T*22
$IIRSA,-10,A,,V*7B
$IIMWV,006.5,R,3.9,N,A*34
$IIMWV,167.5,T,2.0,N,A*3C
$IIVHW,258.0,T,257.0,M,5.84,N,10.81,K*6B
$IIBWC,082619,,,,,,T,,M,,N,*05
$IIDBT,11.0,f,3.35,M,1.83,F*2E
$IIGGA,082619,4000.507,N,01528.735,E,1,08,1,1,M,45,M,,*4F
$IIGLL,4000.507,N,01528.735,E,082619,A*30
$IIHDM,255.0,M*20
$IIHDT,256.0,T*23
$IIRSA,-10,A,,V*7B
$IIMWV,337.5,R,4.2,N,A*39
$IIMWV,223.5,T,2.3,N,A*3C
$IIVHW,257.0,T,256.0,M,5.59,N,10.35,K*6A
$IIGSA,,3,25,29,12,02,31,24,14,06,,,,,,1,*71
$IIMTW,31.1,C*10
$IIZDA,082621,23,08,2015,,*5F
$IIMWD,097.5,T,096.5,M,1.8,N,0.9,M*45
$IIVTG,253.0,T,252.0,M,6.3,N,11.7,K*6A
$IIBWC,082622,,,,,,T,,M,,N,*0D
$IIDBT,11.0,f,3.35,M,1.83,F*2E
$IIGGA,082622,4000.505,N,01528.727,E,1,08,1,1,M,45,M,,*46
$IIGLL,4000.505,N,01528.727,E,082622,A*39
$IIHDM,257.5,M*27
$IIHDT,258.5,T*28
$IIRSA,-10,A,,V*7B
$IIMWV,326.0,R,3.9,N,A*30
$IIMWV,220.0,T,3.4,N,A*3C
$IIVHW,259.5,T,258.5,M,5.84,N,10.81,K*65
