$IIDBT,16.1,f,4.91,M,2.68,F*27
$IIGGA,080338,3931.646,N,01555.078,E,1,08,1,1,M,44,M,,*44
$IIGLL,3931.646,N,01555.078,E,080338,A*3A
$IIDBT,16.0,f,4.88,M,2.66,F*20
$IIGGA,080339,3931.646,N,01555.078,E,1,08,1,1,M,44,M,,*45
$IIGLL,3931.646,N,01555.078,E,080339,A*3B
$IIDBT,16.0,f,4.88,M,2.66,F*20
$IIGGA,080341,3931.646,N,01555.078,E,1,08,1,0,M,44,M,,*4B
$IIGLL,3931.646,N,01555.078,E,080341,A*34
$IIMWV,083.5,R,4.6,N,A*31
$IIHDT,122.0,T*23
$IIRSA,10,A,,V*56
$IIMWV,083.5,R,4.6,N,A*31
$IIMWV,083.5,T,4.6,N,A*37
$IIVHW,122.0,T,121.0,M,0.00,N,0.00,K*56
$IIMWD,206.5,T,205.5,M,4.6,N,2.4,M*43
$IIVTG,000.0,T,359.0,M,0.0,N,0.0,K*56
$IIDBT,15.8,f,4.82,M,2.63,F*24
$IIGGA,080343,3931.646,N,01555.078,E,1,08,1,0,M,44,M,,*49
$IIGLL,3931.646,N,01555.078,E,080343,A*36
$IIHDM,121.0,M*20
$IIHDT,122.0,T*23
$IIRSA,10,A,,V*56
$IIMWV,081.5,R,4.3,N,A*36
$IIMWV,081.5,T,4.3,N,A*30
$IIVHW,122.0,T,121.0,M,0.00,N,0.00,K*56
$IIDBT,16.1,f,4.91,M,2.68,F*27
$IIGGA,080345,3931.646,N,01555.078,E,1,08,1,0,M,44,M,,*4F
$IIGLL,3931.646,N,01555.078,E,080345,A*30
$IIMWV,074.5,R,5.0,N,A*3E
$IIMWV,074.5,T,5.0,N,A*38
$IIHDT,122.0,T*23
$IIRSA,10,A,,V*56
$IIMWV,074.5,R,5.0,N,A*3E
$IIMWV,074.5,T,5.0,N,A*38
$IIVHW,122.0,T,121.0,M,0.00,N,0.00,K*56
$IIGSA,,3,25,12,29,02,24,14,06,31,,,,,,1,*71
$IIMTW,30.7,C*17
$IIZDA,080347,22,08,2015,,*59
$IIMWD,205.5,T,204.5,M,4.3,N,2.2,M*42
$IIVTG,000.0,T,359.0,M,0.0,N,0.0,K*56
$IIDBT,15.8,f,4.82,M,2.63,F*24
$IIGGA,080348,3931.646,N,01555.078,E,1,08,1,0,M,44,M,,*42
$IIGLL,3931.646,N,01555.078,E,080348,A*3D
$IIMWV,092.5,T,4.6,N,A*37
$IIVHW,122.0,T,121.0,M,0.00,N,0.00,K*56
$IIDBT,15.8,f,4.82,M,2.63,F*24
$IIGGA,080349,3931.646,N,01555.078,E,1,08,1,0,M,44,M,,*43
$IIGLL,3931.646,N,01555.078,E,080349,A*3C
$IIHDM,121.0,M*20
$IIHDT,122.0,T*23
$IIRSA,10,A,,V*56
$IIMWV,075.0,R,4.8,N,A*33
$IIMWV,075.0,T,4.8,N,A*35
$IIVHW,122.0,T,121.0,M,0.00,N,0.00,K*56
$IIDBT,16.4,f,5.00,M,2.73,F*21
$IIGGA,080351,3931.646,N,01555.078,E,1,08,1,0,M,44,M,,*4A
$IIGLL,3931.646,N,01555.078,E,080351,A*35
$IIVHW,121.5,T,120.5,M,0.00,N,0.00,K*54
$IIMWD,200.5,T,199.5,M,4.1,N,2.1,M*41
$IIVTG,000.0,T,359.0,M,0.0,N,0.0,K*56
$IIDBT,15.9,f,4.85,M,2.65,F*24
$IIGGA,080353,3931.646,N,01555.078,E,1,07,2,0,M,44,M,,*44
$IIGLL,3931.646,N,01555.078,E,080353,A*37
$IIMWV,103.0,T,4.8,N,A*35
$IIMWV,103.0,R,4.8,N,A*33
$IIMWV,103.0,T,4.8,N,A*35
$IIVHW,122.0,T,121.0,M,0.00,N,0.00,K*56
$IIDBT,15.9,f,4.85,M,2.65,F*24
$IIGGA,080355,3931.646,N,01555.078,E,1,08,1,0,M,44,M,,*4E
$IIGLL,3931.646,N,01555.078,E,080355,A*31
$IIVHW,122.0,T,121.0,M,0.00,N,0.00,K*56
$IIGSA,,3,25,12,29,02,24,14,06,31,,,,,,1,*71
$IIMTW,30.7,C*17
$IIZDA,080357,22,08,2015,,*58
$IIMWD,203.5,T,202.5,M,4.6,N,2.4,M*41
$IIVTG,000.0,T,359.0,M,0.0,N,0.0,K*56
$IIDBT,15.9,f,4.85,M,2.65,F*24
$IIGGA,080358,3931.646,N,01555.078,E,1,08,1,0,M,44,M,,*43
$IIGLL,3931.646,N,01555.078,E,080358,A*3C
$IIVHW,122.0,T,121.0,M,0.00,N,0.00,K*56
$IIDBT,16.1,f,4.91,M,2.68,F*27
$IIGGA,080359,3931.646,N,01555.078,E,1,08,1,0,M,44,M,,*42
$IIGLL,3931.646,N,01555.078,E,080359,A*3D
$IIHDT,123.0,T*22
$IIRSA,10,A,,V*56
$IIMWV,071.5,R,4.5,N,A*3F
$IIMWV,071.5,T,4.5,N,A*39
$IIVHW,123.0,T,122.0,M,0.00,N,0.00,K*54
$IIDBT,15.9,f,4.85,M,2.65,F*24
$IIGGA,080401,3931.646,N,01555.078,E,1,08,1,-1,M,44,M,,*64
$IIGLL,3931.646,N,01555.078,E,080401,A*37
$IIMWD,198.5,T,197.5,M,4.4,N,2.3,M*4A
$IIVTG,000.0,T,359.0,M,0.0,N,0.0,K*56
$IIDBT,16.0,f,4.88,M,2.66,F*20
$IIGGA,080403,3931.646,N,01555.078,E,1,08,1,-1,M,44,M,,*66
$IIGLL,3931.646,N,01555.078,E,080403,A*35
$IIVHW,122.0,T,121.0,M,0.00,N,0.00,K*56
$IIDBT,16.0,f,4.88,M,2.66,F*20
$IIGGA,080405,3931.646,N,01555.078,E,1,08,1,-1,M,44,M,,*60
$IIGLL,3931.646,N,01555.078,E,080405,A*33
$IIVHW,121.5,T,120.5,M,0.00,N,0.00,K*54
$IIGSA,,3,25,12,29,02,24,14,06,31,,,,,,1,*71
$IIMTW,30.7,C*17
$IIZDA,080407,22,08,2015,,*5A
$IIMWD,197.0,T,196.0,M,4.1,N,2.1,M*43
$IIVTG,000.0,T,359.0,M,0.0,N,0.0,K*56
$IIDBT,15.9,f,4.85,M,2.65,F*24
$IIGGA,080408,3931.646,N,01555.078,E,1,08,1,-1,M,44,M,,*6D
$IIGLL,3931.646,N,01555.078,E,080408,A*3E
$IIDBT,16.2,f,4.94,M,2.70,F*28
$IIGGA,080409,3931.646,N,01555.078,E,1,08,1,-1,M,44,M,,*6C
$IIGLL,3931.646,N,01555.078,E,080409,A*3F
$IIVHW,121.5,T,120.5,M,0.00,N,0.00,K*54
$IIDBT,15.9,f,4.85,M,2.65,F*24
$IIGGA,080411,3931.646,N,01555.078,E,1,08,1,-1,M,44,M,,*65
$IIGLL,3931.646,N,01555.078,E,080411,A*36
$IIVHW,122.0,T,121.0,M,0.00,N,0.00,K*56
$IIVHW,122.0,T,121.0,M,0.00,N,0.00,K*56
$IIMWD,209.0,T,208.0,M,4.0,N,2.1,M*42
$IIVTG,000.0,T,359.0,M,0.0,N,0.0,K*56
$IIDBT,16.0,f,4.88,M,2.66,F*20
$IIGGA,080413,3931.646,N,01555.078,E,1,08,1,-1,M,44,M,,*67
$IIGLL,3931.646,N,01555.078,E,080413,A*34
$IIDBT,15.8,f,4.82,M,2.63,F*24
$IIGGA,080415,3931.646,N,01555.078,E,1,08,1,-1,M,44,M,,*61
$IIGLL,3931.646,N,01555.078,E,080415,A*32
$IIVHW,122.0,T,121.0,M,0.00,N,0.00,K*56
$IIGSA,,3,25,12,29,02,24,14,06,31,,,,,,1,*71
$IIMTW,30.7,C*17
$IIZDA,080417,22,08,2015,,*5B
$IIMWD,201.5,T,200.5,M,3.8,N,2.0,M*4C
$IIVTG,000.0,T,359.0,M,0.0,N,0.0,K*56
$IIDBT,16.2,f,4.94,M,2.70,F*28
$IIGGA,080418,3931.646,N,01555.078,E,1,08,1,-1,M,44,M,,*6C
$IIGLL,3931.646,N,01555.078,E,080418,A*3F
$IIDBT,15.9,f,4.85,M,2.65,F*24
$IIGGA,080419,3931.646,N,01555.078,E,1,08,1,-1,M,44,M,,*6D
$IIGLL,3931.646,N,01555.078,E,080419,A*3E
$IIVHW,122.0,T,121.0,M,0.00,N,0.00,K*56
$IIDBT,15.8,f,4.82,M,2.63,F*24
$IIGGA,080421,3931.646,N,01555.078,E,1,08,1,0,M,44,M,,*4A
$IIGLL,3931.646,N,01555.078,E,080421,A*35
$IIMWD,192.5,T,191.5,M,3.5,N,1.8,M*48
$IIVTG,000.0,T,359.0,M,0.0,N,0.0,K*56
$IIDBT,16.3,f,4.97,M,2.71,F*2B
$IIGGA,080423,3931.646,N,01555.078,E,1,08,1,0,M,44,M,,*48
$IIGLL,3931.646,N,01555.078,E,080423,A*37
$IIDBT,15.9,f,4.85,M,2.65,F*24
$IIGGA,080425,3931.646,N,01555.078,E,1,08,1,0,M,44,M,,*4E
$IIGLL,3931.646,N,01555.078,E,080425,A*31
$IIGSA,,3,25,12,29,02,24,14,06,31,,,,,,1,*71
$IIMTW,30.7,C*17
$IIZDA,080427,22,08,2015,,*58
$IIMWD,198.0,T,197.0,M,3.2,N,1.6,M*4D
$IIVTG,000.0,T,359.0,M,0.0,N,0.0,K*56
$IIDBT,15.8,f,4.82,M,2.63,F*24
$IIGGA,080428,3931.646,N,01555.078,E,1,08,1,0,M,44,M,,*43
$IIGLL,3931.646,N,01555.078,E,080428,A*3C
$IIDBT,16.0,f,4.88,M,2.66,F*20
$IIGGA,080429,3931.646,N,01555.078,E,1,08,1,0,M,44,M,,*42
$IIGLL,3931.646,N,01555.078,E,080429,A*3D
$IIDBT,16.0,f,4.88,M,2.66,F*20
$IIGGA,080431,3931.646,N,01555.078,E,1,08,1,1,M,44,M,,*4A
$IIGLL,3931.646,N,01555.078,E,080431,A*34
$IIMWD,205.0,T,204.0,M,3.3,N,1.7,M*43
$IIVTG,000.0,T,359.0,M,0.0,N,0.0,K*56
$IIDBT,16.3,f,4.97,M,2.71,F*2B
$IIGGA,080433,3931.646,N,01555.078,E,1,08,1,1,M,44,M,,*48
$IIGLL,3931.646,N,01555.078,E,080433,A*36
$IIDBT,16.3,f,4.97,M,2.71,F*2B
$IIGGA,080435,3931.646,N,01555.078,E,1,08,1,1,M,44,M,,*4E
$IIGLL,3931.646,N,01555.078,E,080435,A*30
$IIGSA,,3,25,12,29,02,24,14,06,31,,,,,,1,*71
$IIMTW,30.7,C*17
$IIZDA,080437,22,08,2015,,*59
$IIMWD,200.0,T,199.0,M,3.8,N,2.0,M*4E
$IIVTG,000.0,T,359.0,M,0.0,N,0.0,K*56
$IIDBT,15.9,f,4.85,M,2.65,F*24
$IIGGA,080438,3931.646,N,01555.078,E,1,08,1,1,M,44,M,,*43
$IIGLL,3931.646,N,01555.078,E,080438,A*3D
$IIHDM,121.0,M*20
$IIHDT,122.0,T*23
$IIRSA,10,A,,V*56
$IIMWV,093.5,R,3.9,N,A*38
$IIMWV,093.5,T,3.9,N,A*3E
$IIVHW,122.0,T,121.0,M,0.00,N,0.00,K*56
$IIDBT,15.9,f,4.85,M,2.65,F*24
$IIGGA,080439,3931.646,N,01555.078,E,1,08,1,1,M,44,M,,*42
$IIGLL,3931.646,N,01555.078,E,080439,A*3C
$IIDBT,16.2,f,4.94,M,2.70,F*28
$IIGGA,080441,3931.646,N,01555.078,E,1,08,1,2,M,44,M,,*4E
$IIGLL,3931.646,N,01555.078,E,080441,A*33
$IIHDM,121.0,M*20
$IIHDT,122.0,T*23
$IIRSA,10,A,,V*56
$IIMWV,100.0,R,3.9,N,A*36
$IIMWV,100.0,T,3.9,N,A*30
$IIVHW,123.0,T,122.0,M,0.00,N,0.00,K*54
$IIMWD,208.0,T,207.0,M,4.3,N,2.2,M*4C
$IIVTG,000.0,T,359.0,M,0.0,N,0.0,K*56
$IIDBT,16.3,f,4.97,M,2.71,F*2B
$IIGGA,080443,3931.646,N,01555.078,E,1,08,1,2,M,44,M,,*4C
$IIGLL,3931.646,N,01555.078,E,080443,A*31
$IIHDM,121.0,M*20
$IIHDT,122.0,T*23
$IIRSA,10,A,,V*56
$IIMWV,089.0,R,4.3,N,A*3B
$IIMWV,089.0,T,4.3,N,A*3D
$IIVHW,122.0,T,121.0,M,0.00,N,0.00,K*56
$IIDBT,15.9,f,4.85,M,2.65,F*24
$IIGGA,080445,3931.646,N,01555.078,E,1,08,1,2,M,44,M,,*4A
$IIGLL,3931.646,N,01555.078,E,080445,A*37
$IIHDM,121.5,M*25
$IIHDT,122.5,T*26
$IIRSA,10,A,,V*56
$IIMWV,082.5,R,4.0,N,A*36
$IIMWV,082.5,T,4.0,N,A*30
$IIVHW,122.5,T,121.5,M,0.00,N,0.00,K*56
$IIGSA,,3,25,12,29,02,24,14,06,31,,,,,,1,*71
$IIMTW,30.7,C*17
$IIZDA,080447,22,08,2015,,*5E
$IIMWD,208.5,T,207.5,M,3.9,N,2.0,M*43
$IIVTG,000.0,T,359.0,M,0.0,N,0.0,K*56
$IIDBT,16.2,f,4.94,M,2.70,F*28
$IIGGA,080448,3931.646,N,01555.078,E,1,08,1,2,M,44,M,,*47
$IIGLL,3931.646,N,01555.078,E,080448,A*3A
$IIHDM,121.0,M*20
$IIRSA,10,A,,V*56
$IIMWV,090.0,R,3.8,N,A*3F
$IIMWV,090.0,T,3.8,N,A*39
$IIVHW,122.0,T,121.0,M,0.00,N,0.00,K*56
$IIDBT,16.0,f,4.88,M,2.66,F*20
$IIGGA,080449,3931.646,N,01555.078,E,1,08,1,2,M,44,M,,*46
$IIGLL,3931.646,N,01555.078,E,080449,A*3B
$IIDBT,15.9,f,4.85,M,2.65,F*24
$IIGGA,080451,3931.646,N,01555.078,E,1,08,1,3,M,44,M,,*4E
$IIGLL,3931.646,N,01555.078,E,080451,A*32
$IIHDM,121.0,M*20
$IIHDT,122.0,T*23
$IIRSA,10,A,,V*56
$IIMWV,084.0,R,3.6,N,A*34
$IIMWV,084.0,T,3.6,N,A*32
$IIVHW,122.0,T,121.0,M,0.00,N,0.00,K*56
$IIMWD,197.0,T,196.0,M,3.5,N,1.8,M*4A
$IIVTG,000.0,T,359.0,M,0.0,N,0.0,K*56
$IIDBT,16.3,f,4.97,M,2.71,F*2B
$IIGGA,080453,3931.646,N,01555.078,E,1,08,1,3,M,44,M,,*4C
$IIGLL,3931.646,N,01555.078,E,080453,A*30
$IIRSA,10,A,,V*56
$IIHDT,122.0,T*23
$IIRSA,10,A,,V*56
$IIMWV,077.5,R,3.2,N,A*39
$IIMWV,077.5,T,3.2,N,A*3F
$IIVHW,122.0,T,121.0,M,0.00,N,0.00,K*56
$IIDBT,16.2,f,4.94,M,2.70,F*28
$IIGGA,080455,3931.646,N,01555.078,E,1,08,1,3,M,44,M,,*4A
$IIGLL,3931.646,N,01555.078,E,080455,A*36
$IIRSA,10,A,,V*56
$IIHDT,123.0,T*22
$IIRSA,10,A,,V*56
$IIMWV,088.5,R,3.7,N,A*3C
$IIMWV,088.5,T,3.7,N,A*3A
$IIVHW,123.0,T,122.0,M,0.00,N,0.00,K*54
$IIGSA,,3,25,12,29,02,24,14,06,31,,,,,,1,*71
$IIMTW,30.7,C*17
$IIZDA,080457,22,08,2015,,*5F
$IIMWD,203.0,T,202.0,M,3.9,N,2.0,M*4D
$IIVTG,000.0,T,359.0,M,0.0,N,0.0,K*56
$IIDBT,16.1,f,4.91,M,2.68,F*27
$IIGGA,080458,3931.646,N,01555.078,E,1,08,1,3,M,44,M,,*47
$IIGLL,3931.646,N,01555.078,E,080458,A*3B
$IIRSA,10,A,,V*56
$IIMWV,081.0,R,3.9,N,A*3E
$IIRSA,10,A,,V*56
$IIMWV,081.0,R,3.9,N,A*3E
$IIMWV,086.0,T,3.7,N,A*31
$IIVHW,123.0,T,122.0,M,0.00,N,0.00,K*54
$IIDBT,16.2,f,4.94,M,2.70,F*28
$IIGGA,080459,3931.646,N,01555.078,E,1,08,1,3,M,44,M,,*46
$IIGLL,3931.646,N,01555.078,E,080459,A*3A
$IIDBT,16.1,f,4.91,M,2.68,F*27
$IIGGA,080501,3931.646,N,01555.078,E,1,08,1,2,M,44,M,,*4B
$IIGLL,3931.646,N,01555.078,E,080501,A*36
$IIRSA,10,A,,V*56
$IIMWV,089.0,R,3.6,N,A*39
$IIRSA,10,A,,V*56
$IIMWV,089.0,R,3.6,N,A*39
$IIMWV,089.0,T,3.7,N,A*3E
$IIVHW,123.0,T,122.0,M,0.00,N,0.00,K*54
$IIMWD,212.0,T,211.0,M,3.7,N,1.9,M*4B
$IIVTG,000.0,T,359.0,M,0.0,N,0.0,K*56
$IIDBT,15.9,f,4.85,M,2.65,F*24
$IIGGA,080503,3931.646,N,01555.078,E,1,08,1,2,M,44,M,,*49
$IIGLL,3931.646,N,01555.078,E,080503,A*34
$IIMWV,091.5,T,3.9,N,A*3C
$IIMWV,091.5,T,3.9,N,A*3C
$IIMWV,091.5,T,3.9,N,A*3C
$IIVHW,123.0,T,122.0,M,0.00,N,0.00,K*54
$IIDBT,16.1,f,4.91,M,2.68,F*27
$IIGGA,080505,3931.646,N,01555.078,E,1,08,1,2,M,44,M,,*4F
$IIGLL,3931.646,N,01555.078,E,080505,A*32
$IIMWV,096.0,T,3.4,N,A*33
$IIVHW,122.0,T,121.0,M,0.00,N,0.00,K*56
$IIGSA,,3,25,12,29,02,24,14,06,31,,,,,,1,*71
$IIMTW,30.7,C*17
$IIZDA,080507,22,08,2015,,*5B
$IIMWD,205.5,T,204.5,M,3.6,N,1.9,M*48
$IIVTG,000.0,T,359.0,M,0.0,N,0.0,K*56
$IIDBT,15.9,f,4.85,M,2.65,F*24
$IIGGA,080508,3931.646,N,01555.078,E,1,08,1,2,M,44,M,,*42
$IIGLL,3931.646,N,01555.078,E,080508,A*3F
$IIVHW,122.0,T,121.0,M,0.00,N,0.00,K*56
$IIDBT,15.9,f,4.85,M,2.65,F*24
$IIGGA,080509,3931.646,N,01555.078,E,1,08,1,2,M,44,M,,*43
$IIGLL,3931.646,N,01555.078,E,080509,A*3E
$IIHDM,121.0,M*20
$IIHDT,122.0,T*23
$IIRSA,10,A,,V*56
$IIMWV,084.0,R,3.2,N,A*30
$IIMWV,084.0,T,3.2,N,A*36
$IIVHW,122.0,T,121.0,M,0.00,N,0.00,K*56
$IIDBT,15.8,f,4.82,M,2.63,F*24
$IIGGA,080511,3931.646,N,01555.078,E,1,08,1,1,M,44,M,,*49
$IIGLL,3931.646,N,01555.078,E,080511,A*37
$IIVHW,122.5,T,121.5,M,0.00,N,0.00,K*56
$IIMWD,193.0,T,192.0,M,3.5,N,1.8,M*4A
$IIVTG,000.0,T,359.0,M,0.0,N,0.0,K*56
$IIDBT,16.2,f,4.94,M,2.70,F*28
$IIGGA,080513,3931.646,N,01555.078,E,1,08,1,1,M,44,M,,*4B
$IIGLL,3931.646,N,01555.078,E,080513,A*35
$IIDBT,15.9,f,4.85,M,2.65,F*24
$IIGGA,080515,3931.646,N,01555.078,E,1,08,1,1,M,44,M,,*4D
$IIGLL,3931.646,N,01555.078,E,080515,A*33
$IIGSA,,3,25,12,29,02,24,14,06,31,,,,,,1,*71
$IIMTW,30.7,C*17
$IIZDA,080517,22,08,2015,,*5A
$IIMWD,199.5,T,198.5,M,3.7,N,1.9,M*49
$IIVTG,000.0,T,359.0,M,0.0,N,0.0,K*56
$IIDBT,16.2,f,4.94,M,2.70,F*28
$IIGGA,080518,3931.646,N,01555.078,E,1,08,1,1,M,44,M,,*40
$IIGLL,3931.646,N,01555.078,E,080518,A*3E
$IIVHW,122.5,T,121.5,M,0.00,N,0.00,K*56
$IIDBT,16.1,f,4.91,M,2.68,F*27
$IIGGA,080519,3931.646,N,01555.078,E,1,08,1,1,M,44,M,,*41
$IIGLL,3931.646,N,01555.078,E,080519,A*3F
$IIHDT,122.0,T*23
$IIRSA,10,A,,V*56
$IIMWV,083.0,R,4.0,N,A*32
$IIMWV,083.0,T,4.0,N,A*34
$IIVHW,122.0,T,121.0,M,0.00,N,0.00,K*56
$IIDBT,16.2,f,4.94,M,2.70,F*28
$IIGGA,080520,3931.646,N,01555.078,E,1,08,1,1,M,44,M,,*4B
$IIGLL,3931.646,N,01555.078,E,080520,A*35
$IIVHW,122.0,T,121.0,M,0.00,N,0.00,K*56
$IIMWD,213.5,T,212.5,M,3.9,N,2.0,M*4D
$IIVTG,000.0,T,359.0,M,0.0,N,0.0,K*56
$IIDBT,16.2,f,4.94,M,2.70,F*28
$IIGGA,080522,3931.646,N,01555.078,E,1,08,1,0,M,44,M,,*48
$IIGLL,3931.646,N,01555.078,E,080522,A*37
$IIDBT,16.2,f,4.94,M,2.70,F*28
$IIGGA,080524,3931.646,N,01555.078,E,1,08,1,0,M,44,M,,*4E
$IIGLL,3931.646,N,01555.078,E,080524,A*31
$IIGSA,,3,25,12,29,02,24,14,06,31,,,,,,1,*71
$IIMTW,30.7,C*17
$IIZDA,080526,22,08,2015,,*58
$IIMWD,215.5,T,214.5,M,4.2,N,2.2,M*43
$IIVTG,000.0,T,359.0,M,0.0,N,0.0,K*56
$IIDBT,15.9,f,4.85,M,2.65,F*24
$IIGGA,080527,3931.646,N,01555.078,E,1,07,1,0,M,44,M,,*42
$IIGLL,3931.646,N,01555.078,E,080527,A*32
$IIDBT,16.1,f,4.91,M,2.68,F*27
$IIGGA,080528,3931.646,N,01555.078,E,1,08,1,0,M,44,M,,*42
$IIGLL,3931.646,N,01555.078,E,080528,A*3D
$IIMWV,086.0,T,4.3,N,A*32
$IIVHW,122.5,T,121.5,M,0.00,N,0.00,K*56
$IIDBT,16.4,f,5.00,M,2.73,F*21
$IIGGA,080530,3931.646,N,01555.078,E,1,08,1,0,M,44,M,,*4B
$IIGLL,3931.646,N,01555.078,E,080530,A*34
$IIMWD,202.5,T,201.5,M,4.2,N,2.2,M*41
$IIVTG,000.0,T,359.0,M,0.0,N,0.0,K*56
$IIDBT,16.1,f,4.91,M,2.68,F*27
$IIGGA,080532,3931.646,N,01555.078,E,1,08,1,-1,M,44,M,,*65
$IIGLL,3931.646,N,01555.078,E,080532,A*36
$IIDBT,15.8,f,4.82,M,2.63,F*24
$IIGGA,080534,3931.646,N,01555.078,E,1,08,1,-1,M,44,M,,*63
$IIGLL,3931.646,N,01555.078,E,080534,A*30
$IIGSA,,3,25,12,29,02,24,14,06,31,,,,,,1,*71
$IIMTW,30.7,C*17
$IIZDA,080536,22,08,2015,,*59
$IIMWD,209.0,T,208.0,M,4.4,N,2.3,M*44
$IIVTG,000.0,T,359.0,M,0.0,N,0.0,K*56
$IIDBT,16.1,f,4.91,M,2.68,F*27
$IIGGA,080537,3931.646,N,01555.078,E,1,08,1,-1,M,44,M,,*60
$IIGLL,3931.646,N,01555.078,E,080537,A*33
$IIDBT,16.0,f,4.88,M,2.66,F*20
$IIGGA,080538,3931.646,N,01555.078,E,1,08,1,-1,M,44,M,,*6F
$IIGLL,3931.646,N,01555.078,E,080538,A*3C
$IIVHW,122.0,T,121.0,M,0.00,N,0.00,K*56
$IIVHW,122.0,T,121.0,M,0.00,N,0.00,K*56
$IIDBT,15.8,f,4.82,M,2.63,F*24
$IIGGA,080540,3931.646,N,01555.078,E,1,08,1,-1,M,44,M,,*60
$IIGLL,3931.646,N,01555.078,E,080540,A*33
$IIMWD,217.0,T,216.0,M,6.2,N,3.2,M*40
$IIVTG,000.0,T,359.0,M,0.0,N,0.0,K*56
$IIDBT,15.9,f,4.85,M,2.65,F*24
$IIGGA,080542,3931.646,N,01555.078,E,1,08,1,0,M,44,M,,*4E
$IIGLL,3931.646,N,01555.078,E,080542,A*31
$IIDBT,16.1,f,4.91,M,2.68,F*27
$IIGGA,080544,3931.646,N,01555.078,E,1,08,1,0,M,44,M,,*48
$IIGLL,3931.646,N,01555.078,E,080544,A*37
$IIGSA,,3,25,12,29,02,24,14,06,31,,,,,,1,*71
$IIMTW,30.7,C*17
$IIZDA,080546,22,08,2015,,*5E
$IIMWD,219.0,T,218.0,M,5.8,N,3.0,M*4B
$IIVTG,000.0,T,359.0,M,0.0,N,0.0,K*56
$IIDBT,15.9,f,4.85,M,2.65,F*24
$IIGGA,080547,3931.646,N,01555.078,E,1,08,1,0,M,44,M,,*4B
$IIGLL,3931.646,N,01555.078,E,080547,A*34
$IIDBT,15.6,f,4.76,M,2.60,F*22
$IIGGA,080548,3931.646,N,01555.078,E,1,08,1,0,M,44,M,,*44
$IIGLL,3931.646,N,01555.078,E,080548,A*3B
$IIDBT,16.2,f,4.94,M,2.70,F*28
$IIGGA,080550,3931.646,N,01555.078,E,1,08,1,0,M,44,M,,*4D
$IIGLL,3931.646,N,01555.078,E,080550,A*32
$IIMWD,204.5,T,203.5,M,6.2,N,3.2,M*46
$IIVTG,000.0,T,359.0,M,0.0,N,0.0,K*56
$IIDBT,15.9,f,4.85,M,2.65,F*24
$IIGGA,080552,3931.646,N,01555.078,E,1,08,1,-1,M,44,M,,*63
$IIGLL,3931.646,N,01555.078,E,080552,A*30
$IIDBT,16.4,f,5.00,M,2.73,F*21
$IIGGA,080554,3931.646,N,01555.078,E,1,08,1,-1,M,44,M,,*65
$IIGLL,3931.646,N,01555.078,E,080554,A*36
$IIGSA,,3,25,12,29,02,24,14,06,31,,,,,,1,*71
$IIMTW,30.7,C*17
$IIZDA,080556,22,08,2015,,*5F
$IIMWD,197.0,T,196.0,M,6.4,N,3.3,M*47
$IIVTG,000.0,T,359.0,M,0.0,N,0.0,K*56
$IIDBT,15.9,f,4.85,M,2.65,F*24
$IIGGA,080557,3931.646,N,01555.078,E,1,08,1,-1,M,44,M,,*66
$IIGLL,3931.646,N,01555.078,E,080557,A*35
$IIHDT,123.0,T*22
$IIRSA,10,A,,V*56
$IIMWV,069.5,R,6.6,N,A*37
$IIMWV,069.5,T,6.6,N,A*31
$IIVHW,123.0,T,122.0,M,0.00,N,0.00,K*54
$IIDBT,16.0,f,4.88,M,2.66,F*20
$IIGGA,080558,3931.646,N,01555.078,E,1,08,1,-1,M,44,M,,*69
$IIGLL,3931.646,N,01555.078,E,080558,A*3A
$IIDBT,15.8,f,4.82,M,2.63,F*24
$IIGGA,080600,3931.646,N,01555.078,E,1,08,1,-1,M,44,M,,*67
$IIGLL,3931.646,N,01555.078,E,080600,A*34
$IIHDM,121.0,M*20
$IIHDT,122.0,T*23
$IIRSA,10,A,,V*56
$IIMWV,078.5,R,6.8,N,A*39
$IIMWV,078.5,T,6.8,N,A*3F
$IIVHW,123.0,T,122.0,M,0.00,N,0.00,K*54
$IIMWD,204.5,T,203.5,M,6.5,N,3.4,M*47
$IIVTG,000.0,T,359.0,M,0.0,N,0.0,K*56
$IIDBT,16.3,f,4.97,M,2.71,F*2B
$IIGGA,080602,3931.646,N,01555.078,E,1,08,1,-2,M,44,M,,*66
$IIGLL,3931.646,N,01555.078,E,080602,A*36
$IIHDM,121.5,M*25
$IIHDT,122.5,T*26
$IIRSA,10,A,,V*56
$IIMWV,100.5,R,6.3,N,A*3C
$IIMWV,100.5,T,6.3,N,A*3A
$IIVHW,122.0,T,121.0,M,0.00,N,0.00,K*56
$IIDBT,16.0,f,4.88,M,2.66,F*20
$IIGGA,080604,3931.646,N,01555.078,E,1,08,1,-2,M,44,M,,*60
$IIGLL,3931.646,N,01555.078,E,080604,A*30
$IIHDM,121.0,M*20
$IIHDT,122.0,T*23
$IIRSA,10,A,,V*56
$IIMWV,059.5,R,5.2,N,A*33
$IIMWV,059.5,T,5.2,N,A*35
$IIVHW,122.0,T,121.0,M,0.00,N,0.00,K*56
$IIGSA,,3,25,12,29,02,24,14,06,31,,,,,,1,*71
$IIMTW,30.7,C*17
$IIZDA,080606,22,08,2015,,*59
$IIMWD,198.0,T,197.0,M,5.8,N,3.0,M*45
$IIVTG,000.0,T,359.0,M,0.0,N,0.0,K*56
$IIDBT,16.3,f,4.97,M,2.71,F*2B
$IIGGA,080607,3931.646,N,01555.078,E,1,08,1,-2,M,44,M,,*63
$IIGLL,3931.646,N,01555.078,E,080607,A*33
$IIHDT,122.0,T*23
$IIHDM,121.0,M*20
$IIHDT,122.0,T*23
$IIRSA,10,A,,V*56
$IIMWV,065.0,R,5.1,N,A*3A
$IIMWV,065.0,T,5.1,N,A*3C
$IIVHW,122.0,T,121.0,M,0.00,N,0.00,K*56
$IIDBT,16.0,f,4.88,M,2.66,F*20
$IIGGA,080608,3931.646,N,01555.078,E,1,08,1,-2,M,44,M,,*6C
$IIGLL,3931.646,N,01555.078,E,080608,A*3C
$IIDBT,16.8,f,5.12,M,2.80,F*22
$IIGGA,080610,3931.646,N,01555.078,E,1,08,1,-2,M,44,M,,*65
$IIGLL,3931.646,N,01555.078,E,080610,A*35
$IIRSA,10,A,,V*56
$IIHDT,122.0,T*23
$IIRSA,10,A,,V*56
$IIMWV,089.0,R,4.1,N,A*39
$IIMWV,089.0,T,4.1,N,A*3F
$IIVHW,122.0,T,121.0,M,0.00,N,0.00,K*56
$IIMWD,229.5,T,228.5,M,4.8,N,2.5,M*4E
$IIVTG,000.0,T,359.0,M,0.0,N,0.0,K*56
$IIDBT,16.0,f,4.88,M,2.66,F*20
$IIGGA,080612,3931.646,N,01555.078,E,1,08,1,-1,M,44,M,,*64
$IIGLL,3931.646,N,01555.078,E,080612,A*37
$IIRSA,10,A,,V*56
$IIHDT,122.0,T*23
$IIRSA,10,A,,V*56
$IIMWV,101.5,R,5.3,N,A*3E
$IIMWV,101.5,T,5.3,N,A*38
$IIVHW,122.5,T,121.5,M,0.00,N,0.00,K*56
$IIDBT,15.8,f,4.82,M,2.63,F*24
$IIGGA,080614,3931.646,N,01555.078,E,1,08,1,-1,M,44,M,,*62
$IIGLL,3931.646,N,01555.078,E,080614,A*31
$IIRSA,10,A,,V*56
$IIRSA,10,A,,V*56
$IIMWV,077.5,R,6.0,N,A*3E
$IIMWV,077.5,T,6.0,N,A*38
$IIVHW,122.0,T,121.0,M,0.00,N,0.00,K*56
$IIGSA,,3,25,12,29,02,24,14,06,31,,,,,,1,*71
$IIMTW,30.7,C*17
$IIZDA,080616,22,08,2015,,*58
$IIMWD,221.5,T,220.5,M,5.5,N,2.8,M*4F
$IIVTG,000.0,T,359.0,M,0.0,N,0.0,K*56
$IIDBT,16.1,f,4.91,M,2.68,F*27
$IIGGA,080617,3931.646,N,01555.078,E,1,08,1,-1,M,44,M,,*61
$IIGLL,3931.646,N,01555.078,E,080617,A*32
$IIMWV,091.5,T,5.9,N,A*3A
$IIVHW,122.0,T,121.0,M,0.00,N,0.00,K*56
$IIDBT,15.9,f,4.85,M,2.65,F*24
$IIGGA,080618,3931.646,N,01555.078,E,1,08,1,-1,M,44,M,,*6E
$IIGLL,3931.646,N,01555.078,E,080618,A*3D
$IIDBT,16.0,f,4.88,M,2.66,F*20
$IIGGA,080620,3931.646,N,01555.078,E,1,08,1,-1,M,44,M,,*65
$IIGLL,3931.646,N,01555.078,E,080620,A*36
$IIMWV,094.5,T,6.3,N,A*36
$IIVHW,122.0,T,121.0,M,0.00,N,0.00,K*56
$IIMWD,215.5,T,214.5,M,6.4,N,3.3,M*47
$IIVTG,000.0,T,359.0,M,0.0,N,0.0,K*56
$IIDBT,15.8,f,4.82,M,2.63,F*24
$IIGGA,080622,3931.646,N,01555.078,E,1,08,1,0,M,44,M,,*4B
$IIGLL,3931.646,N,01555.078,E,080622,A*34
$IIMWV,097.0,T,6.3,N,A*30
$IIVHW,122.0,T,121.0,M,0.00,N,0.00,K*56
$IIDBT,16.2,f,4.94,M,2.70,F*28
$IIGGA,080624,3931.646,N,01555.078,E,1,08,1,0,M,44,M,,*4D
$IIGLL,3931.646,N,01555.078,E,080624,A*32
$IIMWV,091.5,T,6.5,N,A*35
$IIVHW,121.5,T,120.5,M,0.00,N,0.00,K*54
$IIGSA,,3,25,12,29,02,24,14,06,31,,,,,,1,*71
$IIMTW,30.7,C*17
$IIZDA,080626,22,08,2015,,*5B
$IIMWD,212.0,T,211.0,M,6.2,N,3.2,M*42
$IIVTG,000.0,T,359.0,M,0.0,N,0.0,K*56
$IIDBT,15.9,f,4.85,M,2.65,F*24
$IIGGA,080627,3931.646,N,01555.078,E,1,08,1,0,M,44,M,,*4E
$IIGLL,3931.646,N,01555.078,E,080627,A*31
$IIDBT,16.0,f,4.88,M,2.66,F*20
$IIGGA,080628,3931.646,N,01555.078,E,1,08,1,0,M,44,M,,*41
$IIGLL,3931.646,N,01555.078,E,080628,A*3E
$IIRSA,10,A,,V*56
$IIHDM,121.5,M*25
$IIHDT,122.5,T*26
$IIRSA,10,A,,V*56
$IIMWV,079.5,R,5.9,N,A*3A
$IIMWV,079.5,T,5.9,N,A*3C
$IIVHW,122.5,T,121.5,M,0.00,N,0.00,K*56
$IIDBT,16.0,f,4.88,M,2.66,F*20
$IIGGA,080630,3931.646,N,01555.078,E,1,08,1,0,M,44,M,,*48
$IIGLL,3931.646,N,01555.078,E,080630,A*37
$IIVHW,122.5,T,121.5,M,0.00,N,0.00,K*56
$IIMWD,196.5,T,195.5,M,5.6,N,2.9,M*4F
$IIVTG,000.0,T,359.0,M,0.0,N,0.0,K*56
$IIDBT,16.3,f,4.97,M,2.71,F*2B
$IIGGA,080632,3931.646,N,01555.078,E,1,08,1,1,M,44,M,,*4B
$IIGLL,3931.646,N,01555.078,E,080632,A*35
$IIVHW,122.5,T,121.5,M,0.00,N,0.00,K*56
$IIDBT,16.0,f,4.88,M,2.66,F*20
$IIGGA,080634,3931.646,N,01555.078,E,1,08,1,1,M,44,M,,*4D
$IIGLL,3931.646,N,01555.078,E,080634,A*33
$IIGSA,,3,25,12,29,02,24,14,06,31,,,,,,1,*71
$IIMTW,30.7,C*17
$IIZDA,080636,22,08,2015,,*5A
$IIMWD,205.0,T,204.0,M,4.7,N,2.4,M*40
$IIVTG,000.0,T,359.0,M,0.0,N,0.0,K*56
$IIDBT,16.1,f,4.91,M,2.68,F*27
$IIGGA,080637,3931.646,N,01555.078,E,1,08,1,1,M,44,M,,*4E
$IIGLL,3931.646,N,01555.078,E,080637,A*30
$IIVHW,123.0,T,122.0,M,0.00,N,0.00,K*54
$IIDBT,16.0,f,4.88,M,2.66,F*20
$IIGGA,080638,3931.646,N,01555.078,E,1,08,1,1,M,44,M,,*41
$IIGLL,3931.646,N,01555.078,E,080638,A*3F
$IIRSA,10,A,,V*56
$IIMWV,097.0,R,4.5,N,A*32
$IIRSA,10,A,,V*56
$IIMWV,097.0,R,4.5,N,A*32
$IIMWV,097.0,T,4.5,N,A*34
$IIVHW,122.5,T,121.5,M,0.00,N,0.00,K*56
$IIDBT,16.2,f,4.94,M,2.70,F*28
$IIGGA,080640,3931.646,N,01555.078,E,1,08,1,1,M,44,M,,*4E
$IIGLL,3931.646,N,01555.078,E,080640,A*30
$IIMWD,219.5,T,218.5,M,5.1,N,2.6,M*45
$IIVTG,000.0,T,359.0,M,0.0,N,0.0,K*56
$IIDBT,16.2,f,4.94,M,2.70,F*28
$IIGGA,080642,3931.646,N,01555.078,E,1,08,1,2,M,44,M,,*4F
$IIGLL,3931.646,N,01555.078,E,080642,A*32
$IIDBT,15.9,f,4.85,M,2.65,F*24
$IIGGA,080644,3931.646,N,01555.078,E,1,08,1,2,M,44,M,,*49
$IIGLL,3931.646,N,01555.078,E,080644,A*34
$IIGSA,,3,25,12,29,02,24,14,06,31,,,,,,1,*71
$IIMTW,30.7,C*17
$IIZDA,080646,22,08,2015,,*5D
$IIMWD,211.5,T,210.5,M,5.5,N,2.8,M*4F
$IIVTG,000.0,T,359.0,M,0.0,N,0.0,K*56
$IIDBT,16.2,f,4.94,M,2.70,F*28
$IIGGA,080647,3931.646,N,01555.078,E,1,08,1,2,M,44,M,,*4A
$IIGLL,3931.646,N,01555.078,E,080647,A*37
$IIDBT,16.3,f,4.97,M,2.71,F*2B
$IIGGA,080648,3931.646,N,01555.078,E,1,08,1,2,M,44,M,,*45
$IIGLL,3931.646,N,01555.078,E,080648,A*38
$IIMWV,078.5,T,5.7,N,A*33
$IIVHW,122.5,T,121.5,M,0.00,N,0.00,K*56
$IIDBT,14.5,f,4.42,M,2.41,F*24
$IIGGA,080650,3931.646,N,01555.078,E,1,08,1,2,M,44,M,,*4C
$IIGLL,3931.646,N,01555.078,E,080650,A*31
$IIMWD,215.5,T,214.5,M,6.0,N,3.1,M*41
$IIVTG,000.0,T,359.0,M,0.0,N,0.0,K*56
$IIDBT,15.9,f,4.85,M,2.65,F*24
$IIGGA,080652,3931.646,N,01555.078,E,1,08,1,0,M,44,M,,*4C
$IIGLL,3931.646,N,01555.078,E,080652,A*33
$IIDBT,16.0,f,4.88,M,2.66,F*20
$IIGGA,080654,3931.646,N,01555.078,E,1,08,1,0,M,44,M,,*4A
$IIGLL,3931.646,N,01555.078,E,080654,A*35
$IIGSA,,3,25,12,29,02,24,14,06,31,,,,,,1,*71
$IIMTW,30.7,C*17
$IIZDA,080656,22,08,2015,,*5C
$IIMWD,227.0,T,226.0,M,5.8,N,3.0,M*4B
$IIVTG,000.0,T,359.0,M,0.0,N,0.0,K*56
$IIDBT,16.1,f,4.91,M,2.68,F*27
$IIGGA,080657,3931.646,N,01555.078,E,1,08,1,0,M,44,M,,*49
$IIGLL,3931.646,N,01555.078,E,080657,A*36
$IIDBT,16.2,f,4.94,M,2.70,F*28
$IIGGA,080658,3931.646,N,01555.078,E,1,08,1,0,M,44,M,,*46
$IIGLL,3931.646,N,01555.078,E,080658,A*39
$IIVHW,123.0,T,122.0,M,0.00,N,0.00,K*54
$IIVHW,123.0,T,122.0,M,0.00,N,0.00,K*54
$IIDBT,16.2,f,4.94,M,2.70,F*28
$IIGGA,080700,3931.646,N,01555.078,E,1,08,1,0,M,44,M,,*4A
$IIGLL,3931.646,N,01555.078,E,080700,A*35
$IIMWD,213.5,T,212.5,M,4.1,N,2.1,M*43
$IIVTG,000.0,T,359.0,M,0.0,N,0.0,K*56
$IIDBT,16.1,f,4.91,M,2.68,F*27
$IIGGA,080701,3931.646,N,01555.078,E,1,08,1,-1,M,44,M,,*67
$IIGLL,3931.646,N,01555.078,E,080701,A*34
$IIDBT,16.1,f,4.91,M,2.68,F*27
$IIGGA,080703,3931.646,N,01555.078,E,1,08,1,-1,M,44,M,,*65
$IIGLL,3931.646,N,01555.078,E,080703,A*36
$IIGSA,,3,25,12,29,02,24,14,06,31,,,,,,1,*71
$IIMTW,30.7,C*17
$IIZDA,080705,22,08,2015,,*5B
$IIMWD,225.5,T,224.5,M,4.9,N,2.5,M*4F
$IIVTG,000.0,T,359.0,M,0.0,N,0.0,K*56
$IIDBT,16.1,f,4.91,M,2.68,F*27
$IIGGA,080706,3931.646,N,01555.078,E,1,08,1,-1,M,44,M,,*60
$IIGLL,3931.646,N,01555.078,E,080706,A*33
$IIDBT,16.2,f,4.94,M,2.70,F*28
$IIGGA,080707,3931.646,N,01555.078,E,1,08,1,-1,M,44,M,,*61
$IIGLL,3931.646,N,01555.078,E,080707,A*32
$IIDBT,16.1,f,4.91,M,2.68,F*27
$IIGGA,080709,3931.646,N,01555.078,E,1,08,1,-1,M,44,M,,*6F
$IIGLL,3931.646,N,01555.078,E,080709,A*3C
$IIVTG,000.0,T,359.0,M,0.0,N,0.0,K*56
$IIDBT,16.1,f,4.91,M,2.68,F*27
$IIGGA,080712,3931.646,N,01555.078,E,1,08,1,0,M,44,M,,*49
$IIGLL,3931.646,N,01555.078,E,080712,A*36
$IIHDM,121.0,M*20
$IIHDT,122.0,T*23
$IIRSA,10,A,,V*56
$IIMWV,088.0,R,5.7,N,A*3F
$IIMWV,088.0,T,5.7,N,A*39
$IIVHW,122.0,T,121.0,M,0.00,N,0.00,K*56
$IIDBT,15.8,f,4.82,M,2.63,F*24
$IIGGA,080714,3931.646,N,01555.078,E,1,08,1,0,M,44,M,,*4F
$IIGLL,3931.646,N,01555.078,E,080714,A*30
$IIHDM,121.0,M*20
$IIHDT,122.0,T*23
$IIRSA,10,A,,V*56
$IIMWV,102.0,R,5.6,N,A*3D
$IIMWV,102.0,T,5.6,N,A*3B
$IIVHW,122.0,T,121.0,M,0.00,N,0.00,K*56
$IIGSA,,3,25,12,29,02,24,14,06,31,,,,,,1,*71
$IIMTW,30.7,C*17
$IIZDA,080716,22,08,2015,,*59
$IIMWD,215.5,T,214.5,M,5.6,N,2.9,M*4D
$IIVTG,000.0,T,359.0,M,0.0,N,0.0,K*56
$IIDBT,16.1,f,4.91,M,2.68,F*27
$IIGGA,080717,3931.646,N,01555.078,E,1,08,1,0,M,44,M,,*4C
$IIGLL,3931.646,N,01555.078,E,080717,A*33
$IIHDM,121.5,M*25
$IIHDT,122.5,T*26
$IIRSA,10,A,,V*56
$IIMWV,089.0,R,5.6,N,A*3F
$IIMWV,089.0,T,5.6,N,A*39
$IIVHW,123.0,T,122.0,M,0.00,N,0.00,K*54
$IIDBT,15.7,f,4.79,M,2.61,F*2D
$IIGGA,080718,3931.646,N,01555.078,E,1,08,1,0,M,44,M,,*43
$IIGLL,3931.646,N,01555.078,E,080718,A*3C
$IIDBT,15.9,f,4.85,M,2.65,F*24
$IIGGA,080720,3931.646,N,01555.078,E,1,08,1,0,M,44,M,,*48
$IIGLL,3931.646,N,01555.078,E,080720,A*37
$IIHDM,121.5,M*25
$IIHDT,122.5,T*26
$IIRSA,10,A,,V*56
$IIMWV,075.5,R,5.3,N,A*3C
$IIMWV,075.5,T,5.3,N,A*3A
$IIVHW,123.0,T,122.0,M,0.00,N,0.00,K*54
$IIMWD,197.5,T,196.5,M,5.3,N,2.7,M*46
$IIVTG,000.0,T,359.0,M,0.0,N,0.0,K*56
$IIDBT,16.1,f,4.91,M,2.68,F*27
$IIGGA,080721,3931.646,N,01555.078,E,1,08,1,0,M,44,M,,*49
$IIGLL,3931.646,N,01555.078,E,080721,A*36
$IIHDM,122.0,M*23
$IIHDT,123.0,T*22
$IIRSA,10,A,,V*56
$IIMWV,084.0,R,5.3,N,A*37
$IIMWV,084.0,T,5.3,N,A*31
$IIVHW,123.0,T,122.0,M,0.00,N,0.00,K*54
$IIDBT,15.9,f,4.85,M,2.65,F*24
$IIGGA,080723,3931.646,N,01555.078,E,1,08,1,0,M,44,M,,*4B
$IIGLL,3931.646,N,01555.078,E,080723,A*34
$IIHDM,122.0,M*23
$IIHDT,123.0,T*22
$IIRSA,10,A,,V*56
$IIMWV,080.5,R,5.5,N,A*30
$IIMWV,080.5,T,5.5,N,A*36
$IIVHW,123.0,T,122.0,M,0.00,N,0.00,K*54
$IIGSA,,3,25,12,29,02,24,14,06,31,,,,,,1,*71
$IIMTW,30.7,C*17
$IIZDA,080725,22,08,2015,,*59
$IIMWD,218.5,T,217.5,M,6.5,N,3.4,M*4F
$IIVTG,000.0,T,359.0,M,0.0,N,0.0,K*56
$IIDBT,15.8,f,4.82,M,2.63,F*24
$IIGGA,080726,3931.646,N,01555.078,E,1,08,1,0,M,44,M,,*4E
$IIGLL,3931.646,N,01555.078,E,080726,A*31
$IIHDT,123.0,T*22
$IIRSA,10,A,,V*56
$IIMWV,091.0,R,6.4,N,A*37
$IIMWV,091.0,T,6.4,N,A*31
$IIVHW,123.0,T,122.0,M,0.00,N,0.00,K*54
$IIDBT,16.4,f,5.00,M,2.73,F*21
$IIGGA,080727,3931.646,N,01555.078,E,1,08,1,0,M,44,M,,*4F
$IIGLL,3931.646,N,01555.078,E,080727,A*30
$IIDBT,16.5,f,5.03,M,2.75,F*25
$IIGGA,080729,3931.646,N,01555.078,E,1,08,1,0,M,44,M,,*41
$IIGLL,3931.646,N,01555.078,E,080729,A*3E
$IIHDM,121.0,M*20
$IIHDT,122.0,T*23
$IIRSA,10,A,,V*56
$IIMWV,087.0,R,5.9,N,A*3E
$IIMWV,087.0,T,5.9,N,A*38
$IIVHW,122.0,T,121.0,M,0.00,N,0.00,K*56
$IIMWD,205.5,T,204.5,M,5.8,N,3.0,M*4B
$IIVTG,000.0,T,359.0,M,0.0,N,0.0,K*56
$IIDBT,15.8,f,4.82,M,2.63,F*24
$IIGGA,080731,3931.646,N,01555.078,E,1,08,1,1,M,44,M,,*49
$IIGLL,3931.646,N,01555.078,E,080731,A*37
$IIHDT,122.0,T*23
$IIRSA,10,A,,V*56
$IIMWV,091.0,R,5.8,N,A*38
$IIMWV,091.0,T,5.8,N,A*3E
$IIVHW,122.0,T,121.0,M,0.00,N,0.00,K*56
$IIDBT,16.8,f,5.12,M,2.80,F*22
$IIGGA,080733,3931.646,N,01555.078,E,1,08,1,1,M,44,M,,*4B
$IIGLL,3931.646,N,01555.078,E,080733,A*35
$IIHDT,121.5,T*25
$IIRSA,10,A,,V*56
$IIMWV,089.5,R,6.0,N,A*3F
$IIMWV,089.5,T,6.0,N,A*39
$IIVHW,122.0,T,121.0,M,0.00,N,0.00,K*56
$IIGSA,,3,25,12,29,02,24,14,06,31,,,,,,1,*71
$IIMTW,30.7,C*17
$IIZDA,080735,22,08,2015,,*58
$IIMWD,218.0,T,217.0,M,6.5,N,3.4,M*4F
$IIVTG,000.0,T,359.0,M,0.0,N,0.0,K*56
$IIDBT,15.9,f,4.85,M,2.65,F*24
$IIGGA,080736,3931.646,N,01555.078,E,1,08,1,1,M,44,M,,*4E
$IIGLL,3931.646,N,01555.078,E,080736,A*30
$IIVHW,122.0,T,121.0,M,0.00,N,0.00,K*56
$IIDBT,15.9,f,4.85,M,2.65,F*24
$IIGGA,080737,3931.646,N,01555.078,E,1,08,1,1,M,44,M,,*4F
$IIGLL,3931.646,N,01555.078,E,080737,A*31
$IIHDM,121.0,M*20
$IIHDT,122.0,T*23
$IIRSA,10,A,,V*56
$IIMWV,094.0,R,5.8,N,A*3D
$IIMWV,094.0,T,5.8,N,A*3B
$IIVHW,122.0,T,121.0,M,0.00,N,0.00,K*56
$IIDBT,16.1,f,4.91,M,2.68,F*27
$IIGGA,080739,3931.646,N,01555.078,E,1,08,1,1,M,44,M,,*41
$IIGLL,3931.646,N,01555.078,E,080739,A*3F
$IIMWV,088.5,T,5.7,N,A*3C
$IIMWV,088.5,R,5.7,N,A*3A
$IIMWV,088.5,T,5.7,N,A*3C
$IIVHW,122.0,T,121.0,M,0.00,N,0.00,K*56
$IIMWD,212.0,T,211.0,M,5.6,N,2.9,M*4F
$IIVTG,000.0,T,359.0,M,0.0,N,0.0,K*56
$IIDBT,15.9,f,4.85,M,2.65,F*24
$IIGGA,080741,3931.646,N,01555.078,E,1,08,1,1,M,44,M,,*4E
$IIGLL,3931.646,N,01555.078,E,080741,A*30
$IIRSA,10,A,,V*56
$IIMWV,090.5,R,6.0,N,A*37
$IIMWV,090.5,T,6.0,N,A*31
$IIRSA,10,A,,V*56
$IIMWV,090.5,R,6.0,N,A*37
$IIMWV,090.5,T,6.0,N,A*31
$IIVHW,123.0,T,122.0,M,0.00,N,0.00,K*54
$IIDBT,16.0,f,4.88,M,2.66,F*20
$IIGGA,080743,3931.646,N,01555.078,E,1,08,1,1,M,44,M,,*4C
$IIGLL,3931.646,N,01555.078,E,080743,A*32
$IIMWV,091.5,R,5.8,N,A*3D
$IIMWV,091.5,T,5.8,N,A*3B
$IIHDT,122.0,T*23
$IIRSA,10,A,,V*56
$IIMWV,091.5,R,5.8,N,A*3D
$IIMWV,091.5,T,5.8,N,A*3B
$IIVHW,122.0,T,121.0,M,0.00,N,0.00,K*56
$IIGSA,,3,25,12,29,02,24,14,06,31,,,,,,1,*71
$IIMTW,30.7,C*17
$IIZDA,080745,22,08,2015,,*5F
$IIMWD,217.5,T,216.5,M,5.5,N,2.8,M*4F
$IIVTG,000.0,T,359.0,M,0.0,N,0.0,K*56
$IIDBT,16.2,f,4.94,M,2.70,F*28
$IIGGA,080746,3931.646,N,01555.078,E,1,08,1,1,M,44,M,,*49
$IIGLL,3931.646,N,01555.078,E,080746,A*37
$IIVHW,122.0,T,121.0,M,0.00,N,0.00,K*56
$IIDBT,16.1,f,4.91,M,2.68,F*27
$IIGGA,080747,3931.646,N,01555.078,E,1,08,1,1,M,44,M,,*48
$IIGLL,3931.646,N,01555.078,E,080747,A*36
$IIHDM,121.0,M*20
$IIHDT,122.0,T*23
$IIRSA,10,A,,V*56
$IIMWV,087.0,R,5.2,N,A*35
$IIMWV,087.0,T,5.2,N,A*33
$IIVHW,122.0,T,121.0,M,0.00,N,0.00,K*56
$IIDBT,16.0,f,4.88,M,2.66,F*20
$IIGGA,080749,3931.646,N,01555.078,E,1,08,1,1,M,44,M,,*46
$IIGLL,3931.646,N,01555.078,E,080749,A*38
$IIMWV,092.5,T,5.8,N,A*38
$IIMWV,092.5,R,5.8,N,A*3E
$IIMWV,092.5,T,5.8,N,A*38
$IIVHW,122.0,T,121.0,M,0.00,N,0.00,K*56
$IIMWD,214.5,T,213.5,M,5.8,N,3.0,M*4D
$IIVTG,000.0,T,359.0,M,0.0,N,0.0,K*56
$IIDBT,15.9,f,4.85,M,2.65,F*24
$IIGGA,080751,3931.646,N,01555.078,E,1,08,1,0,M,44,M,,*4E
$IIGLL,3931.646,N,01555.078,E,080751,A*31
$IIVHW,122.0,T,121.0,M,0.00,N,0.00,K*56
$IIDBT,16.2,f,4.94,M,2.70,F*28
$IIGGA,080753,3931.646,N,01555.078,E,1,08,1,0,M,44,M,,*4C
$IIGLL,3931.646,N,01555.078,E,080753,A*33
$IIMWV,098.5,T,6.6,N,A*3F
$IIMWV,098.5,T,6.6,N,A*3F
$IIVHW,122.0,T,121.0,M,0.00,N,0.00,K*56
$IIGSA,,3,25,12,29,02,24,14,06,31,,,,,,1,*71
$IIMTW,30.7,C*17
$IIZDA,080755,22,08,2015,,*5E
$IIMWD,217.0,T,216.0,M,6.3,N,3.2,M*41
$IIVTG,000.0,T,359.0,M,0.0,N,0.0,K*56
$IIDBT,16.0,f,4.88,M,2.66,F*20
$IIGGA,080756,3931.646,N,01555.078,E,1,08,1,0,M,44,M,,*49
$IIGLL,3931.646,N,01555.078,E,080756,A*36
$IIVHW,122.0,T,121.0,M,0.00,N,0.00,K*56
$IIDBT,16.3,f,4.97,M,2.71,F*2B
$IIGGA,080757,3931.646,N,01555.078,E,1,08,1,0,M,44,M,,*48
$IIGLL,3931.646,N,01555.078,E,080757,A*37
$IIHDT,122.0,T*23
$IIRSA,10,A,,V*56
$IIMWV,094.5,R,6.0,N,A*33
$IIMWV,094.5,T,6.0,N,A*35
$IIVHW,122.0,T,121.0,M,0.00,N,0.00,K*56
$IIDBT,16.1,f,4.91,M,2.68,F*27
$IIGGA,080759,3931.646,N,01555.078,E,1,08,1,0,M,44,M,,*46
$IIGLL,3931.646,N,01555.078,E,080759,A*39
$IIVHW,122.0,T,121.0,M,0.00,N,0.00,K*56
$IIMWD,212.0,T,211.0,M,5.8,N,3.0,M*49
$IIVTG,000.0,T,359.0,M,0.0,N,0.0,K*56
$IIDBT,15.7,f,4.79,M,2.61,F*2D
$IIGGA,080801,3931.646,N,01555.078,E,1,08,1,1,M,44,M,,*45
$IIGLL,3931.646,N,01555.078,E,080801,A*3B
$IIVHW,122.0,T,121.0,M,0.00,N,0.00,K*56
$IIDBT,16.0,f,4.88,M,2.66,F*20
$IIGGA,080803,3931.646,N,01555.078,E,1,08,1,1,M,44,M,,*47
$IIGLL,3931.646,N,01555.078,E,080803,A*39
$IIGSA,,3,25,12,29,02,24,14,06,31,,,,,,1,*71
$IIMTW,30.7,C*17
$IIZDA,080805,22,08,2015,,*54
$IIMWD,214.0,T,213.0,M,5.6,N,2.9,M*4B
$IIVTG,000.0,T,359.0,M,0.0,N,0.0,K*56
$IIDBT,16.1,f,4.91,M,2.68,F*27
$IIGGA,080806,3931.646,N,01555.078,E,1,08,1,1,M,44,M,,*42
$IIGLL,3931.646,N,01555.078,E,080806,A*3C
$IIDBT,16.3,f,4.97,M,2.71,F*2B
$IIGGA,080807,3931.646,N,01555.078,E,1,08,1,1,M,44,M,,*43
$IIGLL,3931.646,N,01555.078,E,080807,A*3D
$IIVHW,122.0,T,121.0,M,0.00,N,0.00,K*56
$IIDBT,15.8,f,4.82,M,2.63,F*24
$IIGGA,080809,3931.646,N,01555.078,E,1,08,1,1,M,44,M,,*4D
$IIGLL,3931.646,N,01555.078,E,080809,A*33
$IIMWD,191.0,T,190.0,M,5.4,N,2.8,M*4E
$IIVTG,000.0,T,359.0,M,0.0,N,0.0,K*56
$IIDBT,15.9,f,4.85,M,2.65,F*24
$IIGGA,080811,3931.646,N,01555.078,E,1,08,1,1,M,44,M,,*44
$IIGLL,3931.646,N,01555.078,E,080811,A*3A
$IIDBT,16.0,f,4.88,M,2.66,F*20
$IIGGA,080813,3931.646,N,01555.078,E,1,08,1,1,M,44,M,,*46
$IIGLL,3931.646,N,01555.078,E,080813,A*38
$IIGSA,,3,25,12,29,02,24,14,06,31,,,,,,1,*71
$IIMTW,30.7,C*17
$IIZDA,080815,22,08,2015,,*55
$IIMWD,214.0,T,213.0,M,5.3,N,2.7,M*40
$IIVTG,000.0,T,359.0,M,0.0,N,0.0,K*56
$IIDBT,16.1,f,4.91,M,2.68,F*27
$IIGGA,080816,3931.646,N,01555.078,E,1,08,1,1,M,44,M,,*43
$IIGLL,3931.646,N,01555.078,E,080816,A*3D
$IIDBT,16.0,f,4.88,M,2.66,F*20
$IIGGA,080817,3931.646,N,01555.078,E,1,08,1,1,M,44,M,,*42
$IIGLL,3931.646,N,01555.078,E,080817,A*3C
$IIVHW,122.0,T,121.0,M,0.00,N,0.00,K*56
$IIDBT,15.8,f,4.82,M,2.63,F*24
$IIGGA,080819,3931.646,N,01555.078,E,1,08,1,1,M,44,M,,*4C
$IIGLL,3931.646,N,01555.078,E,080819,A*32
$IIMWD,211.0,T,210.0,M,5.6,N,2.9,M*4D
$IIVTG,000.0,T,359.0,M,0.0,N,0.0,K*56
$IIDBT,16.0,f,4.88,M,2.66,F*20
$IIGGA,080821,3931.646,N,01555.078,E,1,08,1,0,M,44,M,,*46
$IIGLL,3931.646,N,01555.078,E,080821,A*39
$IIDBT,16.2,f,4.94,M,2.70,F*28
$IIGGA,080823,3931.646,N,01555.078,E,1,08,1,0,M,44,M,,*44
$IIGLL,3931.646,N,01555.078,E,080823,A*3B
$IIGSA,,3,25,12,29,02,24,14,06,31,,,,,,1,*71
$IIMTW,30.7,C*17
$IIZDA,080825,22,08,2015,,*56
$IIMWD,206.0,T,205.0,M,5.1,N,2.6,M*47
$IIVTG,000.0,T,359.0,M,0.0,N,0.0,K*56
$IIDBT,15.9,f,4.85,M,2.65,F*24
$IIGGA,080826,3931.646,N,01555.078,E,1,08,1,0,M,44,M,,*41
$IIGLL,3931.646,N,01555.078,E,080826,A*3E
$IIDBT,15.8,f,4.82,M,2.63,F*24
$IIGGA,080827,3931.646,N,01555.078,E,1,08,1,0,M,44,M,,*40
$IIGLL,3931.646,N,01555.078,E,080827,A*3F
$IIDBT,16.2,f,4.94,M,2.70,F*28
$IIGGA,080829,3931.646,N,01555.078,E,1,08,1,0,M,44,M,,*4E
$IIGLL,3931.646,N,01555.078,E,080829,A*31
$IIMWD,219.5,T,218.5,M,4.6,N,2.4,M*41
$IIVTG,000.0,T,359.0,M,0.0,N,0.0,K*56
$IIDBT,16.1,f,4.91,M,2.68,F*27
$IIGGA,080831,3931.646,N,01555.078,E,1,08,1,0,M,44,M,,*47
$IIGLL,3931.646,N,01555.078,E,080831,A*38
$IIDBT,16.2,f,4.94,M,2.70,F*28
$IIGGA,080833,3931.646,N,01555.078,E,1,08,1,0,M,44,M,,*45
$IIGLL,3931.646,N,01555.078,E,080833,A*3A
$IIGSA,,3,25,12,29,02,24,14,06,31,,,,,,1,*71
$IIMTW,30.7,C*17
$IIZDA,080835,22,08,2015,,*57
$IIMWD,218.5,T,217.5,M,4.2,N,2.2,M*4D
$IIVTG,000.0,T,359.0,M,0.0,N,0.0,K*56
$IIDBT,16.2,f,4.94,M,2.70,F*28
$IIGGA,080836,3931.646,N,01555.078,E,1,08,1,0,M,44,M,,*40
$IIGLL,3931.646,N,01555.078,E,080836,A*3F
$IIDBT,16.0,f,4.88,M,2.66,F*20
$IIGGA,080837,3931.646,N,01555.078,E,1,08,1,0,M,44,M,,*41
$IIGLL,3931.646,N,01555.078,E,080837,A*3E
$IIDBT,15.8,f,4.82,M,2.63,F*24
$IIGGA,080839,3931.646,N,01555.078,E,1,08,1,0,M,44,M,,*4F
$IIGLL,3931.646,N,01555.078,E,080839,A*30
$IIHDM,122.0,M*23
$IIHDT,123.0,T*22
$IIRSA,10,A,,V*56
$IIMWV,087.5,R,4.9,N,A*3A
$IIMWV,087.5,T,4.9,N,A*3C
$IIVHW,123.0,T,122.0,M,0.00,N,0.00,K*54
$IIMWD,213.5,T,212.5,M,4.9,N,2.5,M*4F
$IIVTG,000.0,T,359.0,M,0.0,N,0.0,K*56
$IIDBT,16.0,f,4.88,M,2.66,F*20
$IIGGA,080841,3931.646,N,01555.078,E,1,08,1,3,M,44,M,,*43
$IIGLL,3931.646,N,01555.078,E,080841,A*3F
$IIHDM,121.5,M*25
$IIHDT,122.5,T*26
$IIRSA,10,A,,V*56
$IIMWV,099.5,R,5.1,N,A*3C
$IIMWV,099.5,T,5.1,N,A*3A
$IIVHW,122.0,T,121.0,M,0.00,N,0.00,K*56
$IIDBT,16.4,f,5.00,M,2.73,F*21
$IIGGA,080843,3931.646,N,01555.078,E,1,08,1,3,M,44,M,,*41
$IIGLL,3931.646,N,01555.078,E,080843,A*3D
$IIHDM,121.0,M*20
$IIHDT,122.0,T*23
$IIRSA,10,A,,V*56
$IIMWV,091.0,R,4.9,N,A*38
$IIMWV,091.0,T,4.9,N,A*3E
$IIVHW,122.0,T,121.0,M,0.00,N,0.00,K*56
$IIGSA,,3,25,12,29,02,24,14,06,31,,,,,,1,*71
$IIMTW,30.7,C*17
$IIZDA,080845,22,08,2015,,*50
$IIMWD,218.5,T,217.5,M,4.4,N,2.3,M*4A
$IIVTG,000.0,T,359.0,M,0.0,N,0.0,K*56
$IIDBT,15.9,f,4.85,M,2.65,F*24
$IIGGA,080846,3931.646,N,01555.078,E,1,08,1,3,M,44,M,,*44
$IIGLL,3931.646,N,01555.078,E,080846,A*38
$IIHDM,121.0,M*20
$IIHDT,122.0,T*23
$IIRSA,10,A,,V*56
$IIMWV,119.5,R,4.0,N,A*35
$IIMWV,119.5,T,4.0,N,A*33
$IIVHW,122.0,T,121.0,M,0.00,N,0.00,K*56
$IIDBT,15.8,f,4.82,M,2.63,F*24
$IIGGA,080847,3931.646,N,01555.078,E,1,08,1,3,M,44,M,,*45
$IIGLL,3931.646,N,01555.078,E,080847,A*39
$IIDBT,16.1,f,4.91,M,2.68,F*27
$IIGGA,080849,3931.646,N,01555.078,E,1,08,1,3,M,44,M,,*4B
$IIGLL,3931.646,N,01555.078,E,080849,A*37
$IIHDM,121.0,M*20
$IIHDT,122.0,T*23
$IIRSA,10,A,,V*56
$IIMWV,101.5,R,4.2,N,A*3E
$IIMWV,101.5,T,4.2,N,A*38
$IIVHW,122.0,T,121.0,M,0.00,N,0.00,K*56
$IIMWD,215.0,T,214.0,M,3.9,N,2.0,M*4D
$IIVTG,000.0,T,359.0,M,0.0,N,0.0,K*56
$IIDBT,16.2,f,4.94,M,2.70,F*28
$IIGGA,080851,3931.646,N,01555.078,E,1,08,1,4,M,44,M,,*45
$IIGLL,3931.646,N,01555.078,E,080851,A*3E
$IIHDM,121.0,M*20
$IIHDT,122.0,T*23
$IIRSA,10,A,,V*56
$IIMWV,088.0,R,4.0,N,A*39
$IIMWV,088.0,T,4.0,N,A*3F
$IIVHW,122.0,T,121.0,M,0.00,N,0.00,K*56
$IIDBT,15.8,f,4.82,M,2.63,F*24
$IIGGA,080853,3931.646,N,01555.078,E,1,08,1,4,M,44,M,,*47
$IIGLL,3931.646,N,01555.078,E,080853,A*3C
$IIHDT,122.5,T*26
$IIRSA,10,A,,V*56
$IIMWV,110.0,R,4.4,N,A*3D
$IIMWV,110.0,T,4.4,N,A*3B
$IIVHW,122.5,T,121.5,M,0.00,N,0.00,K*56
$IIGSA,,3,25,12,29,02,24,14,06,31,,,,,,1,*71
$IIMTW,30.7,C*17
$IIZDA,080855,22,08,2015,,*51
$IIMWD,225.0,T,224.0,M,4.1,N,2.1,M*43
$IIVTG,000.0,T,359.0,M,0.0,N,0.0,K*56
$IIDBT,16.1,f,4.91,M,2.68,F*27
$IIGGA,080856,3931.646,N,01555.078,E,1,08,1,4,M,44,M,,*42
$IIGLL,3931.646,N,01555.078,E,080856,A*39
$IIHDT,122.0,T*23
$IIRSA,10,A,,V*56
$IIMWV,103.5,R,4.0,N,A*3E
$IIMWV,103.5,T,4.0,N,A*38
$IIVHW,122.0,T,121.0,M,0.00,N,0.00,K*56
$IIDBT,15.9,f,4.85,M,2.65,F*24
$IIGGA,080857,3931.646,N,01555.078,E,1,08,1,4,M,44,M,,*43
$IIGLL,3931.646,N,01555.078,E,080857,A*38
$IIDBT,15.9,f,4.85,M,2.65,F*24
$IIGGA,080859,3931.646,N,01555.078,E,1,08,1,4,M,44,M,,*4D
$IIGLL,3931.646,N,01555.078,E,080859,A*36
$IIRSA,10,A,,V*56
$IIHDT,122.0,T*23
$IIRSA,10,A,,V*56
$IIMWV,097.5,R,4.0,N,A*32
$IIMWV,126.5,T,4.2,N,A*3D
$IIVHW,122.0,T,121.0,M,0.00,N,0.00,K*56
$IIMWD,248.5,T,247.5,M,4.2,N,2.2,M*4D
$IIVTG,000.0,T,359.0,M,0.0,N,0.0,K*56
$IIDBT,15.9,f,4.85,M,2.65,F*24
$IIGGA,080900,3931.646,N,01555.078,E,1,08,1,3,M,44,M,,*47
$IIGLL,3931.646,N,01555.078,E,080900,A*3B
$IIRSA,10,A,,V*56
$IIRSA,10,A,,V*56
$IIMWV,100.0,R,4.1,N,A*39
$IIMWV,100.0,T,4.1,N,A*3F
$IIVHW,122.0,T,121.0,M,0.00,N,0.00,K*56
$IIDBT,16.1,f,4.91,M,2.68,F*27
$IIGGA,080902,3931.646,N,01555.078,E,1,08,1,3,M,44,M,,*45
$IIGLL,3931.646,N,01555.078,E,080902,A*39
$IIRSA,10,A,,V*56
$IIMWV,101.5,R,3.8,N,A*33
$IIMWV,120.0,T,3.8,N,A*33
$IIVHW,122.0,T,121.0,M,0.00,N,0.00,K*56
$IIGSA,,3,25,12,29,02,24,14,06,31,,,,,,1,*71
$IIMTW,30.7,C*17
$IIZDA,080904,22,08,2015,,*54
$IIMWD,240.5,T,239.5,M,4.6,N,2.4,M*4E
$IIVTG,000.0,T,359.0,M,0.0,N,0.0,K*56
$IIDBT,15.9,f,4.85,M,2.65,F*24
$IIGGA,080905,3931.646,N,01555.078,E,1,08,1,3,M,44,M,,*42
$IIGLL,3931.646,N,01555.078,E,080905,A*3E
$IIMWV,100.5,T,4.5,N,A*3E
$IIVHW,122.5,T,121.5,M,0.00,N,0.00,K*56
$IIDBT,15.9,f,4.85,M,2.65,F*24
$IIGGA,080906,3931.646,N,01555.078,E,1,08,1,3,M,44,M,,*41
$IIGLL,3931.646,N,01555.078,E,080906,A*3D
$IIDBT,16.1,f,4.91,M,2.68,F*27
$IIGGA,080908,3931.646,N,01555.078,E,1,08,1,3,M,44,M,,*4F
$IIGLL,3931.646,N,01555.078,E,080908,A*33
$IIMWV,109.0,T,4.9,N,A*3E
$IIMWV,109.0,R,4.9,N,A*38
$IIMWV,109.0,T,4.9,N,A*3E
$IIMWV,109.0,R,4.9,N,A*38
$IIMWV,109.0,T,4.9,N,A*3E
$IIVHW,122.0,T,121.0,M,0.00,N,0.00,K*56
$IIMWD,231.0,T,230.0,M,4.9,N,2.5,M*4F
$IIVTG,000.0,T,359.0,M,0.0,N,0.0,K*56
$IIDBT,16.1,f,4.91,M,2.68,F*27
$IIGGA,080910,3931.646,N,01555.078,E,1,08,1,3,M,44,M,,*46
$IIGLL,3931.646,N,01555.078,E,080910,A*3A
$IIMWV,099.0,T,4.9,N,A*36
$IIMWV,099.0,T,4.9,N,A*36
$IIVHW,122.5,T,121.5,M,0.00,N,0.00,K*56
$IIDBT,15.8,f,4.82,M,2.63,F*24
$IIGGA,080912,3931.646,N,01555.078,E,1,08,1,2,M,44,M,,*45
$IIGLL,3931.646,N,01555.078,E,080912,A*38
$IIVHW,123.0,T,122.0,M,0.00,N,0.00,K*54
$IIGSA,,3,25,12,29,02,24,14,31,06,,,,,,1,*71
$IIMTW,30.7,C*17
$IIZDA,080914,22,08,2015,,*55
$IIMWD,226.0,T,225.0,M,5.2,N,2.7,M*45
$IIVTG,000.0,T,359.0,M,0.0,N,0.0,K*56
$IIDBT,16.0,f,4.88,M,2.66,F*20
$IIGGA,080915,3931.646,N,01555.078,E,1,08,1,2,M,44,M,,*42
$IIGLL,3931.646,N,01555.078,E,080915,A*3F
$IIVHW,122.0,T,121.0,M,0.00,N,0.00,K*56
$IIDBT,16.0,f,4.88,M,2.66,F*20
$IIGGA,080916,3931.646,N,01555.078,E,1,08,1,2,M,44,M,,*41
$IIGLL,3931.646,N,01555.078,E,080916,A*3C
$IIHDM,121.0,M*20
$IIHDT,122.0,T*23
$IIRSA,10,A,,V*56
$IIMWV,107.5,R,5.5,N,A*3E
$IIMWV,107.5,T,5.5,N,A*38
$IIVHW,122.0,T,121.0,M,0.00,N,0.00,K*56
$IIDBT,15.8,f,4.82,M,2.63,F*24
$IIGGA,080918,3931.646,N,01555.078,E,1,08,1,2,M,44,M,,*4F
$IIGLL,3931.646,N,01555.078,E,080918,A*32
$IIVHW,122.0,T,121.0,M,0.00,N,0.00,K*56
$IIMWD,227.0,T,226.0,M,5.8,N,3.0,M*4B
$IIVTG,000.0,T,359.0,M,0.0,N,0.0,K*56
$IIDBT,15.8,f,4.82,M,2.63,F*24
$IIGGA,080920,3931.646,N,01555.078,E,1,08,1,2,M,44,M,,*44
$IIGLL,3931.646,N,01555.078,E,080920,A*39
$IIVHW,122.0,T,121.0,M,0.00,N,0.00,K*56
$IIDBT,15.8,f,4.82,M,2.63,F*24
$IIGGA,080922,3931.646,N,01555.078,E,1,08,1,2,M,44,M,,*46
$IIGLL,3931.646,N,01555.078,E,080922,A*3B
$IIVHW,122.0,T,121.0,M,0.00,N,0.00,K*56
$IIGSA,,3,25,12,29,02,24,14,31,06,,,,,,1,*71
$IIMTW,30.7,C*17
$IIZDA,080924,22,08,2015,,*56
$IIMWD,230.0,T,229.0,M,5.3,N,2.7,M*4F
$IIVTG,000.0,T,359.0,M,0.0,N,0.0,K*56
$IIDBT,16.0,f,4.88,M,2.66,F*20
$IIGGA,080925,3931.646,N,01555.078,E,1,08,1,2,M,44,M,,*41
$IIGLL,3931.646,N,01555.078,E,080925,A*3C
$IIVHW,121.5,T,120.5,M,0.00,N,0.00,K*54
$IIDBT,16.1,f,4.91,M,2.68,F*27
$IIGGA,080926,3931.646,N,01555.078,E,1,08,1,2,M,44,M,,*42
$IIGLL,3931.646,N,01555.078,E,080926,A*3F
$IIRSA,10,A,,V*56
$IIMWV,110.5,R,5.7,N,A*3A
$IIRSA,10,A,,V*56
$IIMWV,110.5,R,5.7,N,A*3A
$IIMWV,105.0,T,5.7,N,A*3D
$IIVHW,121.5,T,120.5,M,0.00,N,0.00,K*54
$IIDBT,16.1,f,4.91,M,2.68,F*27
$IIGGA,080928,3931.646,N,01555.078,E,1,08,1,2,M,44,M,,*4C
$IIGLL,3931.646,N,01555.078,E,080928,A*31
$IIVHW,123.0,T,122.0,M,0.00,N,0.00,K*54
$IIMWD,244.0,T,243.0,M,5.5,N,2.8,M*49
$IIVTG,000.0,T,359.0,M,0.0,N,0.0,K*56
$IIDBT,15.9,f,4.85,M,2.65,F*24
$IIGGA,080930,3931.646,N,01555.078,E,1,08,1,2,M,44,M,,*45
$IIGLL,3931.646,N,01555.078,E,080930,A*38
$IIDBT,16.2,f,4.94,M,2.70,F*28
$IIGGA,080932,3931.646,N,01555.078,E,1,08,1,2,M,44,M,,*47
$IIGLL,3931.646,N,01555.078,E,080932,A*3A
$IIGSA,,3,25,12,29,02,24,14,31,06,,,,,,1,*71
$IIMTW,30.7,C*17
$IIZDA,080934,22,08,2015,,*57
$IIMWD,238.0,T,237.0,M,5.5,N,2.8,M*41
$IIVTG,000.0,T,359.0,M,0.0,N,0.0,K*56
$IIDBT,15.7,f,4.79,M,2.61,F*2D
$IIGGA,080935,3931.646,N,01555.078,E,1,08,1,2,M,44,M,,*40
$IIGLL,3931.646,N,01555.078,E,080935,A*3D
$IIDBT,15.7,f,4.79,M,2.61,F*2D
$IIGGA,080936,3931.646,N,01555.078,E,1,08,1,2,M,44,M,,*43
$IIGLL,3931.646,N,01555.078,E,080936,A*3E
$IIMWV,097.5,T,5.1,N,A*34
$IIVHW,121.0,T,120.0,M,0.00,N,0.00,K*54
$IIDBT,16.0,f,4.88,M,2.66,F*20
$IIGGA,080938,3931.646,N,01555.078,E,1,08,1,2,M,44,M,,*4D
$IIGLL,3931.646,N,01555.078,E,080938,A*30
$IIMWD,207.5,T,206.5,M,5.1,N,2.6,M*45
$IIVTG,095.0,T,094.0,M,0.0,N,0.0,K*58
$IIDBT,15.9,f,4.85,M,2.65,F*24
$IIGGA,080940,3931.646,N,01555.078,E,1,08,1,2,M,44,M,,*42
$IIGLL,3931.646,N,01555.078,E,080940,A*3F
$IIDBT,15.9,f,4.85,M,2.65,F*24
$IIGGA,080942,3931.646,N,01555.078,E,1,08,1,2,M,44,M,,*40
$IIGLL,3931.646,N,01555.078,E,080942,A*3D
$IIGSA,,3,25,12,29,02,24,14,31,06,,,,,,1,*71
$IIMTW,30.7,C*17
$IIZDA,080944,22,08,2015,,*50
$IIMWD,213.5,T,212.5,M,4.7,N,2.4,M*40
$IIVTG,095.0,T,094.0,M,0.0,N,0.0,K*58
$IIDBT,16.2,f,4.94,M,2.70,F*28
$IIGGA,080945,3931.646,N,01555.078,E,1,08,1,2,M,44,M,,*47
$IIGLL,3931.646,N,01555.078,E,080945,A*3A
$IIDBT,16.1,f,4.91,M,2.68,F*27
$IIGGA,080946,3931.646,N,01555.078,E,1,08,1,2,M,44,M,,*44
$IIGLL,3931.646,N,01555.078,E,080946,A*39
$IIDBT,15.9,f,4.85,M,2.65,F*24
$IIGGA,080948,3931.646,N,01555.078,E,1,08,1,2,M,44,M,,*4A
$IIGLL,3931.646,N,01555.078,E,080948,A*37
$IIMWD,226.5,T,225.5,M,3.5,N,1.8,M*48
$IIVTG,095.0,T,094.0,M,0.0,N,0.0,K*58
$IIDBT,16.0,f,4.88,M,2.66,F*20
$IIGGA,080950,3931.646,N,01555.078,E,1,08,1,2,M,44,M,,*43
$IIGLL,3931.646,N,01555.078,E,080950,A*3E
$IIDBT,16.0,f,4.88,M,2.66,F*20
$IIGGA,080952,3931.646,N,01555.078,E,1,08,1,2,M,44,M,,*41
$IIGLL,3931.646,N,01555.078,E,080952,A*3C
$IIGSA,,3,25,12,29,02,24,14,31,06,,,,,,1,*71
$IIMTW,30.7,C*17
$IIZDA,080954,22,08,2015,,*51
$IIMWD,224.0,T,223.0,M,4.8,N,2.5,M*48
$IIVTG,095.0,T,094.0,M,0.0,N,0.0,K*58
$IIDBT,16.1,f,4.91,M,2.68,F*27
$IIGGA,080955,3931.646,N,01555.078,E,1,08,1,2,M,44,M,,*46
$IIGLL,3931.646,N,01555.078,E,080955,A*3B
$IIDBT,15.9,f,4.85,M,2.65,F*24
$IIGGA,080956,3931.646,N,01555.078,E,1,08,1,2,M,44,M,,*45
$IIGLL,3931.646,N,01555.078,E,080956,A*38
$IIDBT,15.8,f,4.82,M,2.63,F*24
$IIGGA,080958,3931.646,N,01555.078,E,1,08,1,2,M,44,M,,*4B
$IIGLL,3931.646,N,01555.078,E,080958,A*36
$IIVTG,095.0,T,094.0,M,0.0,N,0.0,K*58
$IIDBT,15.8,f,4.82,M,2.63,F*24
$IIGGA,081000,3931.646,N,01555.078,E,1,08,1,2,M,44,M,,*4E
$IIGLL,3931.646,N,01555.078,E,081000,A*33
$IIDBT,15.9,f,4.85,M,2.65,F*24
$IIGGA,081002,3931.646,N,01555.078,E,1,08,1,1,M,44,M,,*4F
$IIGLL,3931.646,N,01555.078,E,081002,A*31
$IIGSA,,3,25,12,29,02,24,14,31,06,,,,,,1,*71
$IIMTW,30.7,C*17
$IIZDA,081004,22,08,2015,,*5C
$IIMWD,227.0,T,226.0,M,6.6,N,3.4,M*42
$IIVTG,095.0,T,094.0,M,0.0,N,0.0,K*58
$IIDBT,15.8,f,4.82,M,2.63,F*24
$IIGGA,081005,3931.646,N,01555.078,E,1,08,1,1,M,44,M,,*48
$IIGLL,3931.646,N,01555.078,E,081005,A*36
$IIHDM,122.5,M*26
$IIHDT,123.5,T*27
$IIRSA,10,A,,V*56
$IIMWV,092.5,R,6.7,N,A*32
$IIMWV,092.5,T,6.7,N,A*34
$IIVHW,123.5,T,122.5,M,0.00,N,0.00,K*54
$IIDBT,15.8,f,4.82,M,2.63,F*24
$IIGGA,081006,3931.646,N,01555.078,E,1,08,1,1,M,44,M,,*4B
$IIGLL,3931.646,N,01555.078,E,081006,A*35
$IIDBT,15.9,f,4.85,M,2.65,F*24
$IIGGA,081008,3931.646,N,01555.078,E,1,08,1,1,M,44,M,,*45
$IIGLL,3931.646,N,01555.078,E,081008,A*3B
$IIHDM,122.0,M*23
$IIHDT,123.0,T*22
$IIRSA,10,A,,V*56
$IIMWV,098.5,R,6.6,N,A*39
$IIMWV,098.5,T,6.6,N,A*3F
$IIVHW,123.0,T,122.0,M,0.00,N,0.00,K*54
$IIMWD,219.5,T,218.5,M,6.5,N,3.4,M*41
$IIVTG,095.0,T,094.0,M,0.0,N,0.0,K*58
$IIDBT,15.8,f,4.82,M,2.63,F*24
$IIGGA,081010,3931.646,N,01555.078,E,1,08,1,1,M,44,M,,*4C
$IIGLL,3931.646,N,01555.078,E,081010,A*32
$IIHDM,121.0,M*20
$IIHDT,122.0,T*23
$IIRSA,10,A,,V*56
$IIMWV,105.5,R,6.5,N,A*3F
$IIMWV,105.5,T,6.5,N,A*39
$IIVHW,122.0,T,121.0,M,0.00,N,0.00,K*56
$IIDBT,16.0,f,4.88,M,2.66,F*20
$IIGGA,081012,3931.646,N,01555.078,E,1,08,1,1,M,44,M,,*4E
$IIGLL,3931.646,N,01555.078,E,081012,A*30
$IIHDM,121.0,M*20
$IIHDT,122.0,T*23
$IIRSA,10,A,,V*56
$IIMWV,093.5,R,7.2,N,A*37
$IIMWV,093.5,T,7.2,N,A*31
$IIVHW,122.0,T,121.0,M,0.00,N,0.00,K*56
$IIGSA,,3,25,12,29,02,24,14,31,06,,,,,,1,*71
$IIMTW,30.7,C*17
$IIZDA,081014,22,08,2015,,*5D
$IIMWD,210.5,T,209.5,M,5.8,N,3.0,M*42
$IIVTG,095.0,T,094.0,M,0.0,N,0.0,K*58
$IIDBT,15.9,f,4.85,M,2.65,F*24
$IIGGA,081015,3931.646,N,01555.078,E,1,08,1,1,M,44,M,,*49
$IIGLL,3931.646,N,01555.078,E,081015,A*37
$IIHDM,121.0,M*20
$IIHDT,122.0,T*23
$IIRSA,10,A,,V*56
$IIMWV,095.5,R,5.9,N,A*38
$IIMWV,095.5,T,5.9,N,A*3E
$IIVHW,122.0,T,121.0,M,0.00,N,0.00,K*56
$IIDBT,15.8,f,4.82,M,2.63,F*24
$IIGGA,081016,3931.646,N,01555.078,E,1,08,1,1,M,44,M,,*4A
$IIGLL,3931.646,N,01555.078,E,081016,A*34
$IIDBT,15.9,f,4.85,M,2.65,F*24
$IIGGA,081018,3931.646,N,01555.078,E,1,08,1,1,M,44,M,,*44
$IIGLL,3931.646,N,01555.078,E,081018,A*3A
$IIHDM,122.0,M*23
$IIHDT,123.0,T*22
$IIRSA,9,A,,V*6E
$IIMWV,092.5,R,4.3,N,A*34
$IIMWV,102.5,T,4.3,N,A*3A
$IIVHW,122.5,T,121.5,M,0.00,N,0.00,K*56
$IIMWD,225.5,T,224.5,M,4.6,N,2.4,M*41
$IIVTG,095.0,T,094.0,M,0.0,N,0.0,K*58
$IIDBT,16.0,f,4.88,M,2.66,F*20
$IIGGA,081020,3931.646,N,01555.078,E,1,08,1,1,M,44,M,,*4F
$IIGLL,3931.646,N,01555.078,E,081020,A*31
$IIRSA,9,A,,V*6E
$IIHDT,123.5,T*27
$IIRSA,9,A,,V*6E
$IIMWV,068.0,R,4.6,N,A*31
$IIMWV,068.0,T,4.6,N,A*37
$IIVHW,123.0,T,122.0,M,0.00,N,0.00,K*54
$IIDBT,15.9,f,4.85,M,2.65,F*24
$IIGGA,081022,3931.646,N,01555.078,E,1,08,1,1,M,44,M,,*4D
$IIGLL,3931.646,N,01555.078,E,081022,A*33
$IIRSA,10,A,,V*56
$IIHDT,123.5,T*27
$IIRSA,10,A,,V*56
$IIMWV,114.5,R,4.3,N,A*3B
$IIMWV,114.5,T,4.3,N,A*3D
$IIVHW,123.5,T,122.5,M,0.00,N,0.00,K*54
$IIGSA,,3,25,12,29,02,24,14,31,06,,,,,,1,*71
$IIMTW,30.7,C*17
$IIZDA,081024,22,08,2015,,*5E
$IIMWD,232.0,T,231.0,M,4.2,N,2.2,M*41
$IIVTG,095.0,T,094.0,M,0.0,N,0.0,K*58
$IIDBT,16.2,f,4.94,M,2.70,F*28
$IIGGA,081025,3931.646,N,01555.078,E,1,08,1,1,M,44,M,,*4A
$IIGLL,3931.646,N,01555.078,E,081025,A*34
$IIHDT,123.5,T*27
$IIRSA,10,A,,V*56
$IIMWV,107.0,R,5.0,N,A*3E
$IIMWV,107.0,T,5.0,N,A*38
$IIVHW,124.0,T,123.0,M,0.00,N,0.00,K*52
$IIDBT,15.9,f,4.85,M,2.65,F*24
$IIGGA,081026,3931.646,N,01555.078,E,1,08,1,1,M,44,M,,*49
$IIGLL,3931.646,N,01555.078,E,081026,A*37
$IIDBT,15.8,f,4.82,M,2.63,F*24
$IIGGA,081028,3931.646,N,01555.078,E,1,08,1,1,M,44,M,,*47
$IIGLL,3931.646,N,01555.078,E,081028,A*39
$IIRSA,10,A,,V*56
$IIMWV,103.0,R,6.7,N,A*3E
$IIRSA,10,A,,V*56
$IIMWV,103.0,R,6.7,N,A*3E
$IIMWV,103.0,T,6.7,N,A*38
$IIVHW,124.0,T,123.0,M,0.00,N,0.00,K*52
$IIMWD,227.0,T,226.0,M,6.7,N,3.5,M*42
$IIVTG,095.0,T,094.0,M,0.0,N,0.0,K*58
$IIDBT,16.0,f,4.88,M,2.66,F*20
$IIGGA,081030,3931.646,N,01555.078,E,1,08,1,1,M,44,M,,*4E
$IIGLL,3931.646,N,01555.078,E,081030,A*30
$IIMWV,101.0,T,6.8,N,A*35
$IIVHW,124.0,T,123.0,M,0.00,N,0.00,K*52
$IIDBT,16.1,f,4.91,M,2.68,F*27
$IIGGA,081032,3931.646,N,01555.078,E,1,08,1,2,M,44,M,,*4F
$IIGLL,3931.646,N,01555.078,E,081032,A*32
$IIMWV,100.0,T,7.0,N,A*3D
$IIVHW,123.5,T,122.5,M,0.00,N,0.00,K*54
$IIGSA,,3,25,12,29,02,24,14,31,06,,,,,,1,*71
$IIMTW,30.7,C*17
$IIZDA,081034,22,08,2015,,*5F
$IIMWD,224.5,T,223.5,M,7.0,N,3.6,M*41
$IIVTG,095.0,T,094.0,M,0.0,N,0.0,K*58
$IIDBT,16.2,f,4.94,M,2.70,F*28
$IIGGA,081035,3931.646,N,01555.078,E,1,08,1,2,M,44,M,,*48
$IIGLL,3931.646,N,01555.078,E,081035,A*35
$IIMWV,105.5,T,6.8,N,A*34
$IIVHW,124.0,T,123.0,M,0.00,N,0.00,K*52
$IIDBT,15.7,f,4.79,M,2.61,F*2D
$IIGGA,081036,3931.646,N,01555.078,E,1,08,1,2,M,44,M,,*4B
$IIGLL,3931.646,N,01555.078,E,081036,A*36
$IIHDM,123.0,M*22
$IIHDT,124.0,T*25
$IIRSA,10,A,,V*56
$IIMWV,106.5,R,6.7,N,A*3E
$IIMWV,106.5,T,6.7,N,A*38
$IIVHW,124.0,T,123.0,M,0.00,N,0.00,K*52
$IIDBT,16.0,f,4.88,M,2.66,F*20
$IIGGA,081038,3931.646,N,01555.078,E,1,08,1,2,M,44,M,,*45
$IIGLL,3931.646,N,01555.078,E,081038,A*38
$IIMWV,095.0,T,5.7,N,A*35
$IIVHW,123.5,T,122.5,M,0.00,N,0.00,K*54
$IIMWD,226.0,T,225.0,M,5.3,N,2.7,M*44
$IIVTG,095.0,T,094.0,M,0.0,N,0.0,K*58
$IIDBT,16.0,f,4.88,M,2.66,F*20
$IIGGA,081040,3931.646,N,01555.078,E,1,08,1,2,M,44,M,,*4A
$IIGLL,3931.646,N,01555.078,E,081040,A*37
$IIVHW,123.0,T,122.0,M,0.00,N,0.00,K*54
$IIDBT,15.8,f,4.82,M,2.63,F*24
$IIGGA,081042,3931.646,N,01555.078,E,1,08,1,1,M,44,M,,*4B
$IIGLL,3931.646,N,01555.078,E,081042,A*35
$IIVHW,122.0,T,121.0,M,0.00,N,0.00,K*56
$IIGSA,,3,25,12,29,02,24,14,31,06,,,,,,1,*71
$IIMTW,30.7,C*17
$IIZDA,081044,22,08,2015,,*58
$IIMWD,219.0,T,218.0,M,6.3,N,3.2,M*41
$IIVTG,095.0,T,094.0,M,0.0,N,0.0,K*58
$IIDBT,15.9,f,4.85,M,2.65,F*24
$IIGGA,081045,3931.646,N,01555.078,E,1,08,1,1,M,44,M,,*4C
$IIGLL,3931.646,N,01555.078,E,081045,A*32
$IIVHW,122.0,T,121.0,M,0.00,N,0.00,K*56
$IIVHW,122.0,T,121.0,M,0.00,N,0.00,K*56
$IIDBT,16.0,f,4.88,M,2.66,F*20
$IIGGA,081046,3931.646,N,01555.078,E,1,08,1,1,M,44,M,,*4F
$IIGLL,3931.646,N,01555.078,E,081046,A*31
$IIRSA,9,A,,V*6E
$IIHDT,122.5,T*26
$IIRSA,9,A,,V*6E
$IIMWV,095.5,R,6.0,N,A*32
$IIMWV,095.5,T,6.0,N,A*34
$IIVHW,123.0,T,122.0,M,0.00,N,0.00,K*54
$IIDBT,15.9,f,4.85,M,2.65,F*24
$IIGGA,081048,3931.646,N,01555.078,E,1,08,1,1,M,44,M,,*41
$IIGLL,3931.646,N,01555.078,E,081048,A*3F
$IIMWD,208.0,T,207.0,M,5.8,N,3.0,M*45
$IIVTG,095.0,T,094.0,M,0.0,N,0.0,K*58
$IIDBT,16.0,f,4.88,M,2.66,F*20
$IIGGA,081050,3931.646,N,01555.078,E,1,08,1,1,M,44,M,,*48
$IIGLL,3931.646,N,01555.078,E,081050,A*36
$IIDBT,15.8,f,4.82,M,2.63,F*24
$IIGGA,081052,3931.646,N,01555.078,E,1,08,1,1,M,44,M,,*4A
$IIGLL,3931.646,N,01555.078,E,081052,A*34
$IIGSA,,3,25,12,29,02,24,14,31,06,,,,,,1,*71
$IIMTW,30.7,C*17
$IIZDA,081054,22,08,2015,,*59
$IIMWD,216.0,T,215.0,M,5.9,N,3.0,M*48
$IIVTG,095.0,T,094.0,M,0.0,N,0.0,K*58
$IIDBT,15.9,f,4.85,M,2.65,F*24
$IIGGA,081055,3931.646,N,01555.078,E,1,08,1,1,M,44,M,,*4D
$IIGLL,3931.646,N,01555.078,E,081055,A*33
$IIDBT,16.2,f,4.94,M,2.70,F*28
$IIGGA,081056,3931.646,N,01555.078,E,1,08,1,1,M,44,M,,*4E
$IIGLL,3931.646,N,01555.078,E,081056,A*30
$IIMWV,112.5,T,5.1,N,A*38
$IIVHW,122.0,T,121.0,M,0.00,N,0.00,K*56
$IIDBT,16.4,f,5.00,M,2.73,F*21
$IIGGA,081058,3931.646,N,01555.078,E,1,08,1,1,M,44,M,,*40
$IIGLL,3931.646,N,01555.078,E,081058,A*3E
$IIMWD,225.0,T,224.0,M,7.3,N,3.8,M*4A
$IIVTG,095.0,T,094.0,M,0.0,N,0.0,K*58
$IIDBT,16.1,f,4.91,M,2.68,F*27
$IIGGA,081100,3931.646,N,01555.078,E,1,08,1,1,M,44,M,,*4C
$IIGLL,3931.646,N,01555.078,E,081100,A*32
$IIDBT,15.9,f,4.85,M,2.65,F*24
$IIGGA,081102,3931.646,N,01555.078,E,1,08,1,3,M,44,M,,*4C
$IIGLL,3931.646,N,01555.078,E,081102,A*30
$IIGSA,,3,25,12,29,02,24,14,31,06,,,,,,1,*71
$IIMTW,30.7,C*17
$IIZDA,081104,22,08,2015,,*5D
$IIMWD,213.5,T,212.5,M,6.5,N,3.4,M*41
$IIVTG,095.0,T,094.0,M,0.0,N,0.0,K*58
$IIDBT,15.9,f,4.85,M,2.65,F*24
$IIGGA,081105,3931.646,N,01555.078,E,1,08,1,3,M,44,M,,*4B
$IIGLL,3931.646,N,01555.078,E,081105,A*37
$IIDBT,15.8,f,4.82,M,2.63,F*24
$IIGGA,081106,3931.646,N,01555.078,E,1,08,1,3,M,44,M,,*48
$IIGLL,3931.646,N,01555.078,E,081106,A*34
$IIDBT,16.1,f,4.91,M,2.68,F*27
$IIGGA,081108,3931.646,N,01555.078,E,1,08,1,3,M,44,M,,*46
$IIGLL,3931.646,N,01555.078,E,081108,A*3A
$IIMWD,210.5,T,209.5,M,5.6,N,2.9,M*44
$IIVTG,095.0,T,094.0,M,0.0,N,0.0,K*58
$IIDBT,16.1,f,4.91,M,2.68,F*27
$IIGGA,081110,3931.646,N,01555.078,E,1,08,1,3,M,44,M,,*4F
$IIGLL,3931.646,N,01555.078,E,081110,A*33
$IIDBT,15.7,f,4.79,M,2.61,F*2D
$IIGGA,081111,3931.646,N,01555.078,E,1,08,1,4,M,44,M,,*49
$IIGLL,3931.646,N,01555.078,E,081111,A*32
$IIGSA,,3,25,12,29,02,24,14,31,06,,,,,,1,*71
$IIMTW,30.7,C*17
$IIZDA,081113,22,08,2015,,*5B
$IIMWD,218.0,T,217.0,M,5.8,N,3.0,M*45
$IIVTG,095.0,T,094.0,M,0.0,N,0.0,K*58
$IIDBT,16.2,f,4.94,M,2.70,F*28
$IIGGA,081114,3931.646,N,01555.078,E,1,08,1,4,M,44,M,,*4C
$IIGLL,3931.646,N,01555.078,E,081114,A*37
$IIDBT,15.8,f,4.82,M,2.63,F*24
$IIGGA,081115,3931.646,N,01555.078,E,1,08,1,4,M,44,M,,*4D
$IIGLL,3931.646,N,01555.078,E,081115,A*36
$IIDBT,16.2,f,4.94,M,2.70,F*28
$IIGGA,081117,3931.646,N,01555.078,E,1,08,1,4,M,44,M,,*4F
$IIGLL,3931.646,N,01555.078,E,081117,A*34
$IIMWD,205.0,T,204.0,M,5.6,N,2.9,M*4D
$IIVTG,095.0,T,094.0,M,0.0,N,0.0,K*58
$IIDBT,16.3,f,4.97,M,2.71,F*2B
$IIGGA,081119,3931.646,N,01555.078,E,1,08,1,4,M,44,M,,*41
$IIGLL,3931.646,N,01555.078,E,081119,A*3A
$IIDBT,16.1,f,4.91,M,2.68,F*27
$IIGGA,081121,3931.646,N,01555.078,E,1,08,1,4,M,44,M,,*4A
$IIGLL,3931.646,N,01555.078,E,081121,A*31
$IIGSA,,3,25,12,29,02,24,14,31,06,,,,,,1,*71
$IIMTW,30.7,C*17
$IIZDA,081123,22,08,2015,,*58
$IIMWD,241.5,T,240.5,M,5.7,N,2.9,M*4C
$IIVTG,095.0,T,094.0,M,0.0,N,0.0,K*58
$IIDBT,16.1,f,4.91,M,2.68,F*27
$IIGGA,081124,3931.646,N,01555.078,E,1,08,1,4,M,44,M,,*4F
$IIGLL,3931.646,N,01555.078,E,081124,A*34
$IIDBT,16.3,f,4.97,M,2.71,F*2B
$IIGGA,081125,3931.646,N,01555.078,E,1,08,1,4,M,44,M,,*4E
$IIGLL,3931.646,N,01555.078,E,081125,A*35
$IIDBT,16.2,f,4.94,M,2.70,F*28
$IIGGA,081127,3931.646,N,01555.078,E,1,08,1,4,M,44,M,,*4C
$IIGLL,3931.646,N,01555.078,E,081127,A*37
$IIVTG,095.0,T,094.0,M,0.0,N,0.0,K*58
$IIDBT,16.2,f,4.94,M,2.70,F*28
$IIGGA,081129,3931.646,N,01555.078,E,1,08,1,4,M,44,M,,*42
$IIGLL,3931.646,N,01555.078,E,081129,A*39
$IIHDM,122.0,M*23
$IIHDT,123.0,T*22
$IIRSA,10,A,,V*56
$IIMWV,091.5,R,6.2,N,A*34
$IIMWV,091.5,T,6.2,N,A*32
$IIVHW,122.0,T,121.0,M,0.00,N,0.00,K*56
$IIDBT,15.9,f,4.85,M,2.65,F*24
$IIGGA,081131,3931.646,N,01555.078,E,1,08,1,3,M,44,M,,*4C
$IIGLL,3931.646,N,01555.078,E,081131,A*30
$IIHDM,122.0,M*23
$IIHDT,123.0,T*22
$IIRSA,10,A,,V*56
$IIMWV,110.0,R,5.9,N,A*31
$IIMWV,110.0,T,5.9,N,A*37
$IIVHW,123.0,T,122.0,M,0.00,N,0.00,K*54
$IIGSA,,3,25,12,29,02,24,14,31,06,,,,,,1,*71
$IIMTW,30.7,C*17
$IIZDA,081133,22,08,2015,,*59
$IIMWD,228.5,T,227.5,M,6.0,N,3.1,M*4F
$IIVTG,095.0,T,094.0,M,0.0,N,0.0,K*58
$IIDBT,16.1,f,4.91,M,2.68,F*27
$IIGGA,081134,3931.646,N,01555.078,E,1,08,1,3,M,44,M,,*49
$IIGLL,3931.646,N,01555.078,E,081134,A*35
$IIHDM,122.0,M*23
$IIHDT,123.0,T*22
$IIRSA,10,A,,V*56
$IIMWV,091.5,R,6.0,N,A*36
$IIMWV,091.5,T,6.0,N,A*30
$IIVHW,123.0,T,122.0,M,0.00,N,0.00,K*54
$IIDBT,16.0,f,4.88,M,2.66,F*20
$IIGGA,081135,3931.646,N,01555.078,E,1,08,1,3,M,44,M,,*48
$IIGLL,3931.646,N,01555.078,E,081135,A*34
$IIDBT,15.9,f,4.85,M,2.65,F*24
$IIGGA,081137,3931.646,N,01555.078,E,1,08,1,3,M,44,M,,*4A
$IIGLL,3931.646,N,01555.078,E,081137,A*36
$IIHDM,121.0,M*20
$IIHDT,122.0,T*23
$IIRSA,10,A,,V*56
$IIMWV,098.5,R,6.0,N,A*3F
$IIMWV,098.5,T,6.0,N,A*39
$IIVHW,122.0,T,121.0,M,0.00,N,0.00,K*56
$IIMWD,218.5,T,217.5,M,6.0,N,3.1,M*4F
$IIVTG,095.0,T,094.0,M,0.0,N,0.0,K*58
$IIDBT,15.9,f,4.85,M,2.65,F*24
$IIGGA,081139,3931.646,N,01555.078,E,1,08,1,3,M,44,M,,*44
$IIGLL,3931.646,N,01555.078,E,081139,A*38
$IIHDM,121.0,M*20
$IIHDT,122.0,T*23
$IIRSA,10,A,,V*56
$IIMWV,094.0,R,5.9,N,A*3C
$IIMWV,103.5,T,5.9,N,A*30
$IIVHW,122.0,T,121.0,M,0.00,N,0.00,K*56
$IIDBT,15.8,f,4.82,M,2.63,F*24
$IIGGA,081141,3931.646,N,01555.078,E,1,08,1,2,M,44,M,,*4A
$IIGLL,3931.646,N,01555.078,E,081141,A*37
$IIHDT,122.0,T*23
$IIRSA,10,A,,V*56
$IIMWV,098.5,R,6.2,N,A*3D
$IIMWV,097.0,T,6.9,N,A*3A
$IIVHW,122.0,T,121.0,M,0.00,N,0.00,K*56
$IIGSA,,3,25,12,29,02,14,31,06,,,,,,,2,*74
$IIMTW,30.7,C*17
$IIZDA,081143,22,08,2015,,*5E
$IIMWD,220.0,T,219.0,M,6.5,N,3.4,M*4A
$IIVTG,095.0,T,094.0,M,0.0,N,0.0,K*58
$IIDBT,16.0,f,4.88,M,2.66,F*20
$IIGGA,081144,3931.646,N,01555.078,E,1,07,2,2,M,44,M,,*43
$IIGLL,3931.646,N,01555.078,E,081144,A*32
$IIRSA,10,A,,V*56
$IIHDT,122.0,T*23
$IIRSA,10,A,,V*56
$IIMWV,097.5,R,6.3,N,A*33
$IIMWV,097.5,T,6.3,N,A*35
$IIVHW,122.0,T,121.0,M,0.00,N,0.00,K*56
$IIDBT,16.1,f,4.91,M,2.68,F*27
$IIGGA,081145,3931.646,N,01555.078,E,1,07,2,2,M,44,M,,*42
$IIGLL,3931.646,N,01555.078,E,081145,A*33
$IIDBT,16.3,f,4.97,M,2.71,F*2B
$IIGGA,081147,3931.646,N,01555.078,E,1,08,1,2,M,44,M,,*4C
$IIGLL,3931.646,N,01555.078,E,081147,A*31
$IIHDM,121.0,M*20
$IIHDT,122.0,T*23
$IIRSA,10,A,,V*56
$IIMWV,102.0,R,6.3,N,A*3B
$IIMWV,102.0,T,6.3,N,A*3D
$IIVHW,122.0,T,121.0,M,0.00,N,0.00,K*56
$IIMWD,224.0,T,223.0,M,6.3,N,3.2,M*47
$IIVTG,095.0,T,094.0,M,0.0,N,0.0,K*58
$IIDBT,16.1,f,4.91,M,2.68,F*27
$IIGGA,081149,3931.646,N,01555.078,E,1,08,1,2,M,44,M,,*42
$IIGLL,3931.646,N,01555.078,E,081149,A*3F
$IIHDT,123.0,T*22
$IIRSA,10,A,,V*56
$IIMWV,101.0,R,7.2,N,A*38
$IIMWV,101.0,T,7.2,N,A*3E
$IIVHW,123.0,T,122.0,M,0.00,N,0.00,K*54
$IIDBT,15.9,f,4.85,M,2.65,F*24
$IIGGA,081151,3931.646,N,01555.078,E,1,08,1,3,M,44,M,,*4A
$IIGLL,3931.646,N,01555.078,E,081151,A*36
$IIHDT,123.0,T*22
$IIRSA,10,A,,V*56
$IIMWV,083.0,R,5.5,N,A*36
$IIMWV,083.0,T,5.5,N,A*30
$IIVHW,123.0,T,122.0,M,0.00,N,0.00,K*54
$IIGSA,,3,25,12,29,02,24,14,31,06,,,,,,2,*72
$IIMTW,30.7,C*17
$IIZDA,081153,22,08,2015,,*5F
$IIMWD,221.5,T,220.5,M,5.0,N,2.6,M*44
$IIVTG,095.0,T,094.0,M,0.0,N,0.0,K*58
$IIDBT,16.1,f,4.91,M,2.68,F*27
$IIGGA,081154,3931.646,N,01555.078,E,1,08,1,3,M,44,M,,*4F
$IIGLL,3931.646,N,01555.078,E,081154,A*33
$IIMWV,097.5,T,5.3,N,A*36
$IIVHW,123.0,T,122.0,M,0.00,N,0.00,K*54
$IIDBT,16.1,f,4.91,M,2.68,F*27
$IIGGA,081155,3931.646,N,01555.078,E,1,08,1,3,M,44,M,,*4E
$IIGLL,3931.646,N,01555.078,E,081155,A*32
$IIDBT,15.8,f,4.82,M,2.63,F*24
$IIGGA,081157,3931.646,N,01555.078,E,1,08,1,3,M,44,M,,*4C
$IIGLL,3931.646,N,01555.078,E,081157,A*30
$IIMWV,101.0,R,6.0,N,A*3B
$IIMWV,101.0,T,6.0,N,A*3D
$IIRSA,10,A,,V*56
$IIMWV,101.0,R,6.0,N,A*3B
$IIMWV,101.0,T,6.0,N,A*3D
